{
	"resultat": [{
		"nodeid": "M1",
		"minadr": "Hjeramoen 54E, 2072, DAL",
		"navn": "anonym",
		"googlesvar": [{
			"place_id": "Eh1IamVyYW1vZW4gNTQsIDIwNzIgRGFsLCBOb3JnZQ",
			"partial_match": true,
			"formatted_address": "Hjeramoen 54, 2072 Dal, Norway",
			"address_components": [{
				"types": ["street_number"],
				"long_name": "54",
				"short_name": "54"
			},
			{
				"types": ["route"],
				"long_name": "Hjeramoen",
				"short_name": "Hjeramoen"
			},
			{
				"long_name": "Dal",
				"short_name": "Dal",
				"types": ["postal_town"]
			},
			{
				"short_name": "Eidsvoll",
				"long_name": "Eidsvoll",
				"types": ["administrative_area_level_2",
				"political"]
			},
			{
				"types": ["administrative_area_level_1",
				"political"],
				"long_name": "Akershus",
				"short_name": "Akershus"
			},
			{
				"long_name": "Norway",
				"short_name": "NO",
				"types": ["country",
				"political"]
			},
			{
				"types": ["postal_code"],
				"long_name": "2072",
				"short_name": "2072"
			}],
			"types": ["street_address"],
			"geometry": {
				"location_type": "RANGE_INTERPOLATED",
				"viewport": {
					"southwest": {
						"lng": 11.1932000197085,
						"lat": 60.2553972197085
					},
					"northeast": {
						"lng": 11.1958979802915,
						"lat": 60.2580951802915
					}
				},
				"location": {
					"lng": 11.194555,
					"lat": 60.2567498
				},
				"bounds": {
					"northeast": {
						"lng": 11.194555,
						"lat": 60.2567498
					},
					"southwest": {
						"lng": 11.194543,
						"lat": 60.2567426
					}
				}
			}
		}],
		"nodetype": "endepunkt"
	},
	{
		"minadr": "KONGSBERGVEIEN 653, 3322, DARBU",
		"nodeid": "M2",
		"googlesvar": [{
			"geometry": {
				"location_type": "ROOFTOP",
				"viewport": {
					"northeast": {
						"lng": 9.8075386802915,
						"lat": 59.7047586802915
					},
					"southwest": {
						"lat": 59.7020607197085,
						"lng": 9.8048407197085
					}
				},
				"location": {
					"lng": 9.8061897,
					"lat": 59.7034097
				}
			},
			"types": ["street_address"],
			"formatted_address": "Kongsbergveien 653, 3322 Darbu, Norway",
			"address_components": [{
				"types": ["street_number"],
				"long_name": "653",
				"short_name": "653"
			},
			{
				"types": ["route"],
				"short_name": "Kongsbergveien",
				"long_name": "Kongsbergveien"
			},
			{
				"short_name": "Darbu",
				"long_name": "Darbu",
				"types": ["postal_town"]
			},
			{
				"long_name": "Øvre Eiker",
				"short_name": "Øvre Eiker",
				"types": ["administrative_area_level_2",
				"political"]
			},
			{
				"long_name": "Buskerud",
				"short_name": "Buskerud",
				"types": ["administrative_area_level_1",
				"political"]
			},
			{
				"long_name": "Norway",
				"short_name": "NO",
				"types": ["country",
				"political"]
			},
			{
				"types": ["postal_code"],
				"long_name": "3322",
				"short_name": "3322"
			}],
			"place_id": "ChIJd7s_K6rZQEYR-GFiVOQomao"
		}],
		"nodetype": "endepunkt",
		"navn": "anonym"
	},
	{
		"minadr": "Løkkebergveien 9, 3014, DRAMMEN",
		"nodeid": "M3",
		"googlesvar": [{
			"geometry": {
				"location": {
					"lng": 10.2165987,
					"lat": 59.7467071
				},
				"viewport": {
					"northeast": {
						"lat": 59.7480560802915,
						"lng": 10.2179476802915
					},
					"southwest": {
						"lng": 10.2152497197085,
						"lat": 59.7453581197085
					}
				},
				"location_type": "ROOFTOP"
			},
			"types": ["street_address"],
			"address_components": [{
				"types": ["street_number"],
				"short_name": "9",
				"long_name": "9"
			},
			{
				"types": ["route"],
				"short_name": "Løkkebergveien",
				"long_name": "Løkkebergveien"
			},
			{
				"types": ["postal_town"],
				"short_name": "Drammen",
				"long_name": "Drammen"
			},
			{
				"short_name": "Drammen",
				"long_name": "Drammen",
				"types": ["administrative_area_level_2",
				"political"]
			},
			{
				"types": ["administrative_area_level_1",
				"political"],
				"short_name": "Buskerud",
				"long_name": "Buskerud"
			},
			{
				"types": ["country",
				"political"],
				"short_name": "NO",
				"long_name": "Norway"
			},
			{
				"short_name": "3014",
				"long_name": "3014",
				"types": ["postal_code"]
			}],
			"formatted_address": "Løkkebergveien 9, 3014 Drammen, Norway",
			"place_id": "ChIJPXVHssk8QUYR1XRBBx_qrl4"
		}],
		"nodetype": "endepunkt",
		"navn": "anonym"
	},
	{
		"navn": "anonym",
		"googlesvar": [{
			"geometry": {
				"location_type": "ROOFTOP",
				"viewport": {
					"southwest": {
						"lng": 10.1675962197085,
						"lat": 59.7491341197085
					},
					"northeast": {
						"lat": 59.7518320802915,
						"lng": 10.1702941802915
					}
				},
				"location": {
					"lng": 10.1689452,
					"lat": 59.7504831
				}
			},
			"types": ["street_address"],
			"formatted_address": "Rosenkrantzgata 128, 3023 Drammen, Norway",
			"address_components": [{
				"short_name": "128",
				"long_name": "128",
				"types": ["street_number"]
			},
			{
				"types": ["route"],
				"short_name": "Rosenkrantzgata",
				"long_name": "Rosenkrantzgata"
			},
			{
				"short_name": "Drammen",
				"long_name": "Drammen",
				"types": ["postal_town"]
			},
			{
				"short_name": "Drammen",
				"long_name": "Drammen",
				"types": ["administrative_area_level_2",
				"political"]
			},
			{
				"types": ["administrative_area_level_1",
				"political"],
				"long_name": "Buskerud",
				"short_name": "Buskerud"
			},
			{
				"types": ["country",
				"political"],
				"short_name": "NO",
				"long_name": "Norway"
			},
			{
				"short_name": "3023",
				"long_name": "3023",
				"types": ["postal_code"]
			}],
			"place_id": "ChIJM9KexT8jQUYRJHGS2LNXLH4"
		}],
		"nodetype": "endepunkt",
		"nodeid": "M4",
		"minadr": "ROSENKRANTZGATA 128, 3023, DRAMMEN"
	},
	{
		"minadr": "STORE LANDFALL ØVRE 56, 3025, DRAMMEN",
		"nodeid": "M5",
		"nodetype": "endepunkt",
		"googlesvar": [{
			"types": ["street_address"],
			"geometry": {
				"location": {
					"lat": 59.756364,
					"lng": 10.1501225
				},
				"viewport": {
					"southwest": {
						"lng": 10.1487735197085,
						"lat": 59.7550150197085
					},
					"northeast": {
						"lng": 10.1514714802915,
						"lat": 59.7577129802915
					}
				},
				"location_type": "ROOFTOP"
			},
			"place_id": "ChIJe0H4Dw4jQUYRnPG72RqPgXg",
			"address_components": [{
				"long_name": "56",
				"short_name": "56",
				"types": ["street_number"]
			},
			{
				"long_name": "Store Landfall Øvre",
				"short_name": "Store Landfall Øvre",
				"types": ["route"]
			},
			{
				"short_name": "Drammen",
				"long_name": "Drammen",
				"types": ["postal_town"]
			},
			{
				"types": ["administrative_area_level_2",
				"political"],
				"long_name": "Drammen",
				"short_name": "Drammen"
			},
			{
				"types": ["administrative_area_level_1",
				"political"],
				"short_name": "Buskerud",
				"long_name": "Buskerud"
			},
			{
				"short_name": "NO",
				"long_name": "Norway",
				"types": ["country",
				"political"]
			},
			{
				"types": ["postal_code"],
				"short_name": "3025",
				"long_name": "3025"
			}],
			"formatted_address": "Store Landfall Øvre 56, 3025 Drammen, Norway"
		}],
		"navn": "anonym"
	},
	{
		"nodeid": "M6",
		"minadr": "Store Landfall Øvre 56 A, 3025, DRAMMEN",
		"navn": "anonym",
		"nodetype": "endepunkt",
		"googlesvar": [{
			"address_components": [{
				"types": ["street_number"],
				"short_name": "56A",
				"long_name": "56A"
			},
			{
				"short_name": "Store Landfall Øvre",
				"long_name": "Store Landfall Øvre",
				"types": ["route"]
			},
			{
				"types": ["postal_town"],
				"short_name": "Drammen",
				"long_name": "Drammen"
			},
			{
				"long_name": "Drammen",
				"short_name": "Drammen",
				"types": ["administrative_area_level_2",
				"political"]
			},
			{
				"short_name": "Buskerud",
				"long_name": "Buskerud",
				"types": ["administrative_area_level_1",
				"political"]
			},
			{
				"short_name": "NO",
				"long_name": "Norway",
				"types": ["country",
				"political"]
			},
			{
				"long_name": "3025",
				"short_name": "3025",
				"types": ["postal_code"]
			}],
			"formatted_address": "Store Landfall Øvre 56A, 3025 Drammen, Norway",
			"place_id": "ChIJyXxeBQ4jQUYRhpzQAKzlHCc",
			"geometry": {
				"location": {
					"lat": 59.7563199,
					"lng": 10.1501467
				},
				"location_type": "ROOFTOP",
				"viewport": {
					"northeast": {
						"lng": 10.1514956802915,
						"lat": 59.7576688802915
					},
					"southwest": {
						"lng": 10.1487977197085,
						"lat": 59.7549709197085
					}
				}
			},
			"types": ["street_address"]
		}]
	},
	{
		"minadr": "Kobbervikhagen 7B, 3040, DRAMMEN",
		"nodeid": "M7",
		"googlesvar": [{
			"place_id": "ChIJ-Re6UaI8QUYR2QSc52B_qrY",
			"address_components": [{
				"long_name": "7B",
				"short_name": "7B",
				"types": ["street_number"]
			},
			{
				"long_name": "Kobbervikhagen",
				"short_name": "Kobbervikhagen",
				"types": ["route"]
			},
			{
				"long_name": "Drammen",
				"short_name": "Drammen",
				"types": ["postal_town"]
			},
			{
				"types": ["administrative_area_level_2",
				"political"],
				"long_name": "Drammen",
				"short_name": "Drammen"
			},
			{
				"long_name": "Buskerud",
				"short_name": "Buskerud",
				"types": ["administrative_area_level_1",
				"political"]
			},
			{
				"short_name": "NO",
				"long_name": "Norway",
				"types": ["country",
				"political"]
			},
			{
				"long_name": "3040",
				"short_name": "3040",
				"types": ["postal_code"]
			}],
			"formatted_address": "Kobbervikhagen 7B, 3040 Drammen, Norway",
			"types": ["street_address"],
			"geometry": {
				"viewport": {
					"southwest": {
						"lng": 10.2275122197085,
						"lat": 59.7271403197085
					},
					"northeast": {
						"lat": 59.7298382802915,
						"lng": 10.2302101802915
					}
				},
				"location_type": "ROOFTOP",
				"location": {
					"lat": 59.7284893,
					"lng": 10.2288612
				}
			}
		}],
		"nodetype": "endepunkt",
		"navn": "anonym"
	},
	{
		"googlesvar": [{
			"geometry": {
				"viewport": {
					"southwest": {
						"lat": 59.7411435197085,
						"lng": 10.2222688197085
					},
					"northeast": {
						"lng": 10.2249667802915,
						"lat": 59.7438414802915
					}
				},
				"location_type": "ROOFTOP",
				"location": {
					"lat": 59.7424925,
					"lng": 10.2236178
				}
			},
			"types": ["street_address"],
			"formatted_address": "Sagveien 12B, 3012 Drammen, Norway",
			"address_components": [{
				"long_name": "12B",
				"short_name": "12B",
				"types": ["street_number"]
			},
			{
				"short_name": "Sagveien",
				"long_name": "Sagveien",
				"types": ["route"]
			},
			{
				"types": ["postal_town"],
				"short_name": "Drammen",
				"long_name": "Drammen"
			},
			{
				"types": ["administrative_area_level_2",
				"political"],
				"long_name": "Drammen",
				"short_name": "Drammen"
			},
			{
				"types": ["administrative_area_level_1",
				"political"],
				"long_name": "Buskerud",
				"short_name": "Buskerud"
			},
			{
				"types": ["country",
				"political"],
				"short_name": "NO",
				"long_name": "Norway"
			},
			{
				"short_name": "3012",
				"long_name": "3012",
				"types": ["postal_code"]
			}],
			"place_id": "ChIJb_QaXbg8QUYRV_AYzAQ9v_I"
		}],
		"nodetype": "endepunkt",
		"navn": "anonym",
		"minadr": "Sagveien 12B, 3012, DRAMMEN",
		"nodeid": "M8"
	},
	{
		"nodetype": "endepunkt",
		"googlesvar": [{
			"geometry": {
				"viewport": {
					"southwest": {
						"lng": 10.1526950197085,
						"lat": 59.7569860197085
					},
					"northeast": {
						"lng": 10.1553929802915,
						"lat": 59.7596839802915
					}
				},
				"location_type": "ROOFTOP",
				"location": {
					"lng": 10.154044,
					"lat": 59.758335
				}
			},
			"types": ["street_address"],
			"address_components": [{
				"short_name": "10",
				"long_name": "10",
				"types": ["street_number"]
			},
			{
				"long_name": "Hasselveien",
				"short_name": "Hasselveien",
				"types": ["route"]
			},
			{
				"types": ["postal_town"],
				"long_name": "Drammen",
				"short_name": "Drammen"
			},
			{
				"short_name": "Drammen",
				"long_name": "Drammen",
				"types": ["administrative_area_level_2",
				"political"]
			},
			{
				"short_name": "Buskerud",
				"long_name": "Buskerud",
				"types": ["administrative_area_level_1",
				"political"]
			},
			{
				"short_name": "NO",
				"long_name": "Norway",
				"types": ["country",
				"political"]
			},
			{
				"types": ["postal_code"],
				"short_name": "3025",
				"long_name": "3025"
			}],
			"formatted_address": "Hasselveien 10, 3025 Drammen, Norway",
			"place_id": "ChIJQZjFNBAjQUYRCGQxYHmtJpA"
		}],
		"navn": "anonym",
		"minadr": "Hasselveien 10, 3025, DRAMMEN",
		"nodeid": "M9"
	},
	{
		"minadr": "Althornet 15, 3033, DRAMMEN",
		"nodeid": "M10",
		"googlesvar": [{
			"types": ["street_address"],
			"geometry": {
				"viewport": {
					"southwest": {
						"lng": 10.1535448197085,
						"lat": 59.7200460197085
					},
					"northeast": {
						"lat": 59.7227439802915,
						"lng": 10.1562427802915
					}
				},
				"location_type": "ROOFTOP",
				"location": {
					"lat": 59.721395,
					"lng": 10.1548938
				}
			},
			"place_id": "ChIJ0zT-W58kQUYRp2QUeKKvj1M",
			"address_components": [{
				"types": ["street_number"],
				"short_name": "15",
				"long_name": "15"
			},
			{
				"types": ["route"],
				"short_name": "Althornet",
				"long_name": "Althornet"
			},
			{
				"short_name": "Drammen",
				"long_name": "Drammen",
				"types": ["postal_town"]
			},
			{
				"short_name": "Drammen",
				"long_name": "Drammen",
				"types": ["administrative_area_level_2",
				"political"]
			},
			{
				"short_name": "Buskerud",
				"long_name": "Buskerud",
				"types": ["administrative_area_level_1",
				"political"]
			},
			{
				"types": ["country",
				"political"],
				"long_name": "Norway",
				"short_name": "NO"
			},
			{
				"short_name": "3033",
				"long_name": "3033",
				"types": ["postal_code"]
			}],
			"formatted_address": "Althornet 15, 3033 Drammen, Norway"
		}],
		"nodetype": "endepunkt",
		"navn": "anonym"
	},
	{
		"nodetype": "endepunkt",
		"googlesvar": [{
			"formatted_address": "3. Bera Terrasse 7B, 3026 Drammen, Norway",
			"address_components": [{
				"types": ["street_number"],
				"long_name": "7B",
				"short_name": "7B"
			},
			{
				"short_name": "3. Bera Terrasse",
				"long_name": "3. Bera Terrasse",
				"types": ["route"]
			},
			{
				"types": ["postal_town"],
				"short_name": "Drammen",
				"long_name": "Drammen"
			},
			{
				"types": ["administrative_area_level_2",
				"political"],
				"short_name": "Drammen",
				"long_name": "Drammen"
			},
			{
				"long_name": "Buskerud",
				"short_name": "Buskerud",
				"types": ["administrative_area_level_1",
				"political"]
			},
			{
				"long_name": "Norway",
				"short_name": "NO",
				"types": ["country",
				"political"]
			},
			{
				"long_name": "3026",
				"short_name": "3026",
				"types": ["postal_code"]
			}],
			"place_id": "ChIJ1UhQ-QcjQUYRgyIIIWiBASM",
			"geometry": {
				"location_type": "ROOFTOP",
				"viewport": {
					"northeast": {
						"lng": 10.1373095802915,
						"lat": 59.7643579802915
					},
					"southwest": {
						"lat": 59.7616600197085,
						"lng": 10.1346116197085
					}
				},
				"location": {
					"lng": 10.1359606,
					"lat": 59.763009
				}
			},
			"types": ["street_address"]
		}],
		"navn": "anonym",
		"minadr": "3. Bera Terrasse 7B, 3026, DRAMMEN",
		"nodeid": "M11"
	},
	{
		"nodeid": "M12",
		"minadr": "Tomterhagan 17E, 2080, EIDSVOLL",
		"navn": "anonym",
		"googlesvar": [{
			"types": ["street_address"],
			"geometry": {
				"location": {
					"lng": 11.197934,
					"lat": 60.328325
				},
				"location_type": "ROOFTOP",
				"viewport": {
					"southwest": {
						"lng": 11.1965850197085,
						"lat": 60.3269760197085
					},
					"northeast": {
						"lat": 60.3296739802915,
						"lng": 11.1992829802915
					}
				}
			},
			"place_id": "ChIJYQaC9jCPQUYRnCe9AvWayIc",
			"formatted_address": "Tomterhagan 17E, 2080 Eidsvoll, Norway",
			"address_components": [{
				"types": ["street_number"],
				"short_name": "17E",
				"long_name": "17E"
			},
			{
				"long_name": "Tomterhagan",
				"short_name": "Tomterhagan",
				"types": ["route"]
			},
			{
				"types": ["postal_town"],
				"long_name": "Eidsvoll",
				"short_name": "Eidsvoll"
			},
			{
				"long_name": "Eidsvoll",
				"short_name": "Eidsvoll",
				"types": ["administrative_area_level_2",
				"political"]
			},
			{
				"long_name": "Akershus",
				"short_name": "Akershus",
				"types": ["administrative_area_level_1",
				"political"]
			},
			{
				"long_name": "Norway",
				"short_name": "NO",
				"types": ["country",
				"political"]
			},
			{
				"types": ["postal_code"],
				"short_name": "2080",
				"long_name": "2080"
			}]
		}],
		"nodetype": "endepunkt"
	},
	{
		"navn": "anonym",
		"googlesvar": [{
			"geometry": {
				"viewport": {
					"southwest": {
						"lng": 10.2691251197085,
						"lat": 60.1746293197085
					},
					"northeast": {
						"lat": 60.1773272802915,
						"lng": 10.2718230802915
					}
				},
				"location_type": "ROOFTOP",
				"location": {
					"lng": 10.2704741,
					"lat": 60.1759783
				}
			},
			"types": ["street_address"],
			"place_id": "ChIJhyqReWcHQUYR3XOQbOgt4JA",
			"partial_match": true,
			"formatted_address": "Asbjørnsens gate 4, 3513 Hønefoss, Norway",
			"address_components": [{
				"types": ["street_number"],
				"long_name": "4",
				"short_name": "4"
			},
			{
				"types": ["route"],
				"short_name": "Asbjørnsens gate",
				"long_name": "Asbjørnsens gate"
			},
			{
				"types": ["postal_town"],
				"long_name": "Hønefoss",
				"short_name": "Hønefoss"
			},
			{
				"long_name": "Ringerike",
				"short_name": "Ringerike",
				"types": ["administrative_area_level_2",
				"political"]
			},
			{
				"types": ["administrative_area_level_1",
				"political"],
				"long_name": "Buskerud",
				"short_name": "Buskerud"
			},
			{
				"types": ["country",
				"political"],
				"short_name": "NO",
				"long_name": "Norway"
			},
			{
				"long_name": "3513",
				"short_name": "3513",
				"types": ["postal_code"]
			}]
		}],
		"nodetype": "endepunkt",
		"nodeid": "M13",
		"minadr": "Asbjørnsensgt. 4, 3513, HØNEFOSS"
	},
	{
		"navn": "anonym",
		"nodetype": "endepunkt",
		"googlesvar": [{
			"types": ["street_address"],
			"geometry": {
				"location_type": "ROOFTOP",
				"viewport": {
					"northeast": {
						"lng": 10.0169164802915,
						"lat": 59.7608807802915
					},
					"southwest": {
						"lat": 59.7581828197085,
						"lng": 10.0142185197085
					}
				},
				"location": {
					"lng": 10.0155675,
					"lat": 59.7595318
				}
			},
			"place_id": "ChIJ8TwdGD4hQUYR7sT3QBtDxkM",
			"address_components": [{
				"short_name": "19",
				"long_name": "19",
				"types": ["street_number"]
			},
			{
				"long_name": "Ekneskroken",
				"short_name": "Ekneskroken",
				"types": ["route"]
			},
			{
				"types": ["postal_town"],
				"long_name": "Krokstadelva",
				"short_name": "Krokstadelva"
			},
			{
				"long_name": "Nedre Eiker",
				"short_name": "Nedre Eiker",
				"types": ["administrative_area_level_2",
				"political"]
			},
			{
				"short_name": "Buskerud",
				"long_name": "Buskerud",
				"types": ["administrative_area_level_1",
				"political"]
			},
			{
				"short_name": "NO",
				"long_name": "Norway",
				"types": ["country",
				"political"]
			},
			{
				"short_name": "3055",
				"long_name": "3055",
				"types": ["postal_code"]
			}],
			"formatted_address": "Ekneskroken 19, 3055 Krokstadelva, Norway"
		}],
		"nodeid": "M14",
		"minadr": "Ekneskroken 19, 3055, KROKSTADELVA"
	},
	{
		"nodeid": "M15",
		"minadr": "Carl Stensethsvei 13, 3055, KROKSTADELVA",
		"navn": "anonym",
		"nodetype": "endepunkt",
		"googlesvar": [{
			"types": ["street_address"],
			"geometry": {
				"bounds": {
					"southwest": {
						"lat": 59.7570034,
						"lng": 10.0314563
					},
					"northeast": {
						"lat": 59.7570042,
						"lng": 10.031475
					}
				},
				"location": {
					"lng": 10.0314563,
					"lat": 59.7570034
				},
				"viewport": {
					"southwest": {
						"lng": 10.0301166697085,
						"lat": 59.7556548197085
					},
					"northeast": {
						"lat": 59.7583527802915,
						"lng": 10.0328146302915
					}
				},
				"location_type": "RANGE_INTERPOLATED"
			},
			"place_id": "Ei9DYXJsIFN0ZW5zZXRocyB2ZWkgMTMsIDMwNTUgS3Jva3N0YWRlbHZhLCBOb3JnZQ",
			"formatted_address": "Carl Stenseths vei 13, 3055 Krokstadelva, Norway",
			"address_components": [{
				"long_name": "13",
				"short_name": "13",
				"types": ["street_number"]
			},
			{
				"types": ["route"],
				"short_name": "Carl Stenseths vei",
				"long_name": "Carl Stenseths vei"
			},
			{
				"long_name": "Krokstadelva",
				"short_name": "Krokstadelva",
				"types": ["postal_town"]
			},
			{
				"short_name": "Nedre Eiker",
				"long_name": "Nedre Eiker",
				"types": ["administrative_area_level_2",
				"political"]
			},
			{
				"types": ["administrative_area_level_1",
				"political"],
				"long_name": "Buskerud",
				"short_name": "Buskerud"
			},
			{
				"types": ["country",
				"political"],
				"short_name": "NO",
				"long_name": "Norway"
			},
			{
				"types": ["postal_code"],
				"long_name": "3055",
				"short_name": "3055"
			}]
		}]
	},
	{
		"minadr": "A.J Horgensvei 18, 3055, KROKSTADELVA",
		"nodeid": "M16",
		"nodetype": "endepunkt",
		"googlesvar": [{
			"address_components": [{
				"types": ["street_number"],
				"short_name": "18",
				"long_name": "18"
			},
			{
				"short_name": "A J Horgens vei",
				"long_name": "A J Horgens vei",
				"types": ["route"]
			},
			{
				"long_name": "Krokstadelva",
				"short_name": "Krokstadelva",
				"types": ["postal_town"]
			},
			{
				"short_name": "Nedre Eiker",
				"long_name": "Nedre Eiker",
				"types": ["administrative_area_level_2",
				"political"]
			},
			{
				"short_name": "Buskerud",
				"long_name": "Buskerud",
				"types": ["administrative_area_level_1",
				"political"]
			},
			{
				"long_name": "Norway",
				"short_name": "NO",
				"types": ["country",
				"political"]
			},
			{
				"types": ["postal_code"],
				"short_name": "3055",
				"long_name": "3055"
			}],
			"formatted_address": "A J Horgens vei 18, 3055 Krokstadelva, Norway",
			"place_id": "ChIJM8vRND0hQUYR3z_zEs8Rr9Q",
			"geometry": {
				"location": {
					"lat": 59.7594544,
					"lng": 10.004077
				},
				"viewport": {
					"southwest": {
						"lat": 59.7581054197085,
						"lng": 10.0027280197085
					},
					"northeast": {
						"lat": 59.7608033802915,
						"lng": 10.0054259802915
					}
				},
				"location_type": "ROOFTOP"
			},
			"types": ["street_address"]
		}],
		"navn": "anonym"
	},
	{
		"navn": "anonym",
		"nodetype": "endepunkt",
		"googlesvar": [{
			"geometry": {
				"location": {
					"lng": 10.0084483,
					"lat": 59.7571738
				},
				"viewport": {
					"southwest": {
						"lat": 59.7558248197085,
						"lng": 10.0070993197085
					},
					"northeast": {
						"lat": 59.7585227802915,
						"lng": 10.0097972802915
					}
				},
				"location_type": "ROOFTOP"
			},
			"types": ["street_address"],
			"formatted_address": "Kalosjegata 30, 3055 Krokstadelva, Norway",
			"address_components": [{
				"long_name": "30",
				"short_name": "30",
				"types": ["street_number"]
			},
			{
				"long_name": "Kalosjegata",
				"short_name": "Kalosjegata",
				"types": ["route"]
			},
			{
				"long_name": "Krokstadelva",
				"short_name": "Krokstadelva",
				"types": ["postal_town"]
			},
			{
				"types": ["administrative_area_level_2",
				"political"],
				"short_name": "Nedre Eiker",
				"long_name": "Nedre Eiker"
			},
			{
				"types": ["administrative_area_level_1",
				"political"],
				"long_name": "Buskerud",
				"short_name": "Buskerud"
			},
			{
				"long_name": "Norway",
				"short_name": "NO",
				"types": ["country",
				"political"]
			},
			{
				"long_name": "3055",
				"short_name": "3055",
				"types": ["postal_code"]
			}],
			"place_id": "ChIJBZShUDwhQUYRl6fGRLdheJ8"
		}],
		"nodeid": "M17",
		"minadr": "Kalosjegata 30, 3055, KROKSTADELVA"
	},
	{
		"googlesvar": [{
			"place_id": "ChIJn1ONpTo9QUYRKao2alL0KSM",
			"partial_match": true,
			"address_components": [{
				"types": ["street_number"],
				"long_name": "35",
				"short_name": "35"
			},
			{
				"short_name": "Kirkeveien",
				"long_name": "Kirkeveien",
				"types": ["route"]
			},
			{
				"types": ["postal_town"],
				"long_name": "Lier",
				"short_name": "Lier"
			},
			{
				"short_name": "Lier",
				"long_name": "Lier",
				"types": ["administrative_area_level_2",
				"political"]
			},
			{
				"types": ["administrative_area_level_1",
				"political"],
				"short_name": "Buskerud",
				"long_name": "Buskerud"
			},
			{
				"short_name": "NO",
				"long_name": "Norway",
				"types": ["country",
				"political"]
			},
			{
				"long_name": "3400",
				"short_name": "3400",
				"types": ["postal_code"]
			}],
			"formatted_address": "Kirkeveien 35, 3400 Lier, Norway",
			"types": ["street_address"],
			"geometry": {
				"location": {
					"lng": 10.2357617,
					"lat": 59.7789141
				},
				"viewport": {
					"northeast": {
						"lng": 10.2371106802915,
						"lat": 59.7802630802915
					},
					"southwest": {
						"lat": 59.7775651197085,
						"lng": 10.2344127197085
					}
				},
				"location_type": "ROOFTOP"
			}
		}],
		"nodetype": "endepunkt",
		"navn": "anonym",
		"minadr": "Kirkeveien 35, 3402, LIER",
		"nodeid": "M18"
	},
	{
		"navn": "anonym",
		"googlesvar": [{
			"geometry": {
				"viewport": {
					"northeast": {
						"lng": 10.2082058802915,
						"lat": 59.7845083802915
					},
					"southwest": {
						"lng": 10.2055079197085,
						"lat": 59.7818104197085
					}
				},
				"location_type": "ROOFTOP",
				"location": {
					"lat": 59.7831594,
					"lng": 10.2068569
				}
			},
			"types": ["street_address"],
			"formatted_address": "Undersrudveien 21, 3400 Lier, Norway",
			"address_components": [{
				"short_name": "21",
				"long_name": "21",
				"types": ["street_number"]
			},
			{
				"types": ["route"],
				"long_name": "Undersrudveien",
				"short_name": "Undersrudveien"
			},
			{
				"long_name": "Lier",
				"short_name": "Lier",
				"types": ["postal_town"]
			},
			{
				"short_name": "Lier",
				"long_name": "Lier",
				"types": ["administrative_area_level_2",
				"political"]
			},
			{
				"short_name": "Buskerud",
				"long_name": "Buskerud",
				"types": ["administrative_area_level_1",
				"political"]
			},
			{
				"types": ["country",
				"political"],
				"long_name": "Norway",
				"short_name": "NO"
			},
			{
				"short_name": "3400",
				"long_name": "3400",
				"types": ["postal_code"]
			}],
			"place_id": "ChIJU92rYc4iQUYR1Ug71KQMlW0",
			"partial_match": true
		}],
		"nodetype": "endepunkt",
		"nodeid": "M19",
		"minadr": "Undersrudveien 21, 3402, LIER"
	},
	{
		"nodeid": "M20",
		"minadr": "Undersrudveien 12, 3402, LIER",
		"navn": "anonym",
		"nodetype": "endepunkt",
		"googlesvar": [{
			"place_id": "ChIJETTlSzI9QUYR1uGB-GNGsfs",
			"partial_match": true,
			"formatted_address": "Undersrudveien 12, 3400 Lier, Norway",
			"address_components": [{
				"long_name": "12",
				"short_name": "12",
				"types": ["street_number"]
			},
			{
				"types": ["route"],
				"long_name": "Undersrudveien",
				"short_name": "Undersrudveien"
			},
			{
				"short_name": "Lier",
				"long_name": "Lier",
				"types": ["postal_town"]
			},
			{
				"types": ["administrative_area_level_2",
				"political"],
				"short_name": "Lier",
				"long_name": "Lier"
			},
			{
				"long_name": "Buskerud",
				"short_name": "Buskerud",
				"types": ["administrative_area_level_1",
				"political"]
			},
			{
				"short_name": "NO",
				"long_name": "Norway",
				"types": ["country",
				"political"]
			},
			{
				"types": ["postal_code"],
				"short_name": "3400",
				"long_name": "3400"
			}],
			"types": ["street_address"],
			"geometry": {
				"location": {
					"lat": 59.7816535,
					"lng": 10.2240231
				},
				"viewport": {
					"southwest": {
						"lat": 59.7803045197085,
						"lng": 10.2226741197085
					},
					"northeast": {
						"lng": 10.2253720802915,
						"lat": 59.7830024802915
					}
				},
				"location_type": "ROOFTOP"
			}
		}]
	},
	{
		"googlesvar": [{
			"geometry": {
				"location": {
					"lng": 10.0313913,
					"lat": 59.7376866
				},
				"viewport": {
					"northeast": {
						"lng": 10.0327402802915,
						"lat": 59.7390355802915
					},
					"southwest": {
						"lat": 59.7363376197085,
						"lng": 10.0300423197085
					}
				},
				"location_type": "ROOFTOP"
			},
			"types": ["street_address"],
			"formatted_address": "Linneaveien 3, 3050 Mjøndalen, Norway",
			"address_components": [{
				"long_name": "3",
				"short_name": "3",
				"types": ["street_number"]
			},
			{
				"short_name": "Linneaveien",
				"long_name": "Linneaveien",
				"types": ["route"]
			},
			{
				"types": ["postal_town"],
				"long_name": "Mjøndalen",
				"short_name": "Mjøndalen"
			},
			{
				"short_name": "Nedre Eiker",
				"long_name": "Nedre Eiker",
				"types": ["administrative_area_level_2",
				"political"]
			},
			{
				"types": ["administrative_area_level_1",
				"political"],
				"short_name": "Buskerud",
				"long_name": "Buskerud"
			},
			{
				"types": ["country",
				"political"],
				"short_name": "NO",
				"long_name": "Norway"
			},
			{
				"long_name": "3050",
				"short_name": "3050",
				"types": ["postal_code"]
			}],
			"place_id": "ChIJSfqsZU0hQUYR3Kpn1YSIeQc"
		}],
		"nodetype": "endepunkt",
		"navn": "anonym",
		"minadr": "LINNEAVEIEN 3, 3050, MJØNDALEN",
		"nodeid": "M21"
	},
	{
		"googlesvar": [{
			"geometry": {
				"location": {
					"lng": 10.0194135,
					"lat": 59.7510864
				},
				"viewport": {
					"southwest": {
						"lat": 59.7497374197085,
						"lng": 10.0180645197085
					},
					"northeast": {
						"lng": 10.0207624802915,
						"lat": 59.7524353802915
					}
				},
				"location_type": "ROOFTOP"
			},
			"types": ["street_address"],
			"place_id": "ChIJ8_hOgEchQUYRlbyrGAMTeAw",
			"address_components": [{
				"types": ["street_number"],
				"short_name": "27",
				"long_name": "27"
			},
			{
				"long_name": "Strandveien",
				"short_name": "Strandveien",
				"types": ["route"]
			},
			{
				"types": ["postal_town"],
				"long_name": "Mjøndalen",
				"short_name": "Mjøndalen"
			},
			{
				"types": ["administrative_area_level_2",
				"political"],
				"short_name": "Nedre Eiker",
				"long_name": "Nedre Eiker"
			},
			{
				"short_name": "Buskerud",
				"long_name": "Buskerud",
				"types": ["administrative_area_level_1",
				"political"]
			},
			{
				"types": ["country",
				"political"],
				"long_name": "Norway",
				"short_name": "NO"
			},
			{
				"short_name": "3050",
				"long_name": "3050",
				"types": ["postal_code"]
			}],
			"formatted_address": "Strandveien 27, 3050 Mjøndalen, Norway"
		}],
		"nodetype": "endepunkt",
		"navn": "anonym",
		"minadr": "Strandveien 27, 3050, MJØNDALEN",
		"nodeid": "M22"
	},
	{
		"nodeid": "M24",
		"minadr": "Strandveien 27, 3050, MJØNDALEN",
		"navn": "anonym",
		"googlesvar": [{
			"types": ["street_address"],
			"geometry": {
				"location_type": "ROOFTOP",
				"viewport": {
					"southwest": {
						"lng": 10.0180645197085,
						"lat": 59.7497374197085
					},
					"northeast": {
						"lat": 59.7524353802915,
						"lng": 10.0207624802915
					}
				},
				"location": {
					"lat": 59.7510864,
					"lng": 10.0194135
				}
			},
			"place_id": "ChIJ8_hOgEchQUYRlbyrGAMTeAw",
			"formatted_address": "Strandveien 27, 3050 Mjøndalen, Norway",
			"address_components": [{
				"types": ["street_number"],
				"long_name": "27",
				"short_name": "27"
			},
			{
				"long_name": "Strandveien",
				"short_name": "Strandveien",
				"types": ["route"]
			},
			{
				"types": ["postal_town"],
				"short_name": "Mjøndalen",
				"long_name": "Mjøndalen"
			},
			{
				"long_name": "Nedre Eiker",
				"short_name": "Nedre Eiker",
				"types": ["administrative_area_level_2",
				"political"]
			},
			{
				"long_name": "Buskerud",
				"short_name": "Buskerud",
				"types": ["administrative_area_level_1",
				"political"]
			},
			{
				"long_name": "Norway",
				"short_name": "NO",
				"types": ["country",
				"political"]
			},
			{
				"types": ["postal_code"],
				"short_name": "3050",
				"long_name": "3050"
			}]
		}],
		"nodetype": "endepunkt"
	},
	{
		"navn": "anonym",
		"nodetype": "endepunkt",
		"googlesvar": [{
			"formatted_address": "Strandveien 27, 3050 Mjøndalen, Norway",
			"address_components": [{
				"types": ["street_number"],
				"short_name": "27",
				"long_name": "27"
			},
			{
				"long_name": "Strandveien",
				"short_name": "Strandveien",
				"types": ["route"]
			},
			{
				"long_name": "Mjøndalen",
				"short_name": "Mjøndalen",
				"types": ["postal_town"]
			},
			{
				"long_name": "Nedre Eiker",
				"short_name": "Nedre Eiker",
				"types": ["administrative_area_level_2",
				"political"]
			},
			{
				"types": ["administrative_area_level_1",
				"political"],
				"short_name": "Buskerud",
				"long_name": "Buskerud"
			},
			{
				"long_name": "Norway",
				"short_name": "NO",
				"types": ["country",
				"political"]
			},
			{
				"long_name": "3050",
				"short_name": "3050",
				"types": ["postal_code"]
			}],
			"place_id": "ChIJ8_hOgEchQUYRlbyrGAMTeAw",
			"geometry": {
				"viewport": {
					"northeast": {
						"lat": 59.7524353802915,
						"lng": 10.0207624802915
					},
					"southwest": {
						"lat": 59.7497374197085,
						"lng": 10.0180645197085
					}
				},
				"location_type": "ROOFTOP",
				"location": {
					"lat": 59.7510864,
					"lng": 10.0194135
				}
			},
			"types": ["street_address"]
		}],
		"nodeid": "M25",
		"minadr": "STRANDVEIEN 27, 3050, MJØNDALEN"
	},
	{
		"minadr": "Kalkveien 15, 3050, MJØNDALEN",
		"nodeid": "M26",
		"googlesvar": [{
			"place_id": "EiRLYWxrdmVpZW4gMTUsIDMwNTAgTWrDuG5kYWxlbiwgTm9yZ2U",
			"formatted_address": "Kalkveien 15, 3050 Mjøndalen, Norway",
			"address_components": [{
				"types": ["street_number"],
				"short_name": "15",
				"long_name": "15"
			},
			{
				"types": ["route"],
				"long_name": "Kalkveien",
				"short_name": "Kalkveien"
			},
			{
				"short_name": "Mjøndalen",
				"long_name": "Mjøndalen",
				"types": ["postal_town"]
			},
			{
				"long_name": "Nedre Eiker",
				"short_name": "Nedre Eiker",
				"types": ["administrative_area_level_2",
				"political"]
			},
			{
				"long_name": "Buskerud",
				"short_name": "Buskerud",
				"types": ["administrative_area_level_1",
				"political"]
			},
			{
				"long_name": "Norway",
				"short_name": "NO",
				"types": ["country",
				"political"]
			},
			{
				"short_name": "3050",
				"long_name": "3050",
				"types": ["postal_code"]
			}],
			"geometry": {
				"bounds": {
					"southwest": {
						"lng": 10.0127129,
						"lat": 59.7357376
					},
					"northeast": {
						"lat": 59.7357388,
						"lng": 10.0127315
					}
				},
				"location": {
					"lat": 59.7357388,
					"lng": 10.0127129
				},
				"viewport": {
					"southwest": {
						"lat": 59.7343892197085,
						"lng": 10.0113732197085
					},
					"northeast": {
						"lat": 59.7370871802915,
						"lng": 10.0140711802915
					}
				},
				"location_type": "RANGE_INTERPOLATED"
			},
			"types": ["street_address"]
		}],
		"nodetype": "endepunkt",
		"navn": "anonym"
	},
	{
		"googlesvar": [{
			"place_id": "EiRLYWxrdmVpZW4gMTUsIDMwNTAgTWrDuG5kYWxlbiwgTm9yZ2U",
			"formatted_address": "Kalkveien 15, 3050 Mjøndalen, Norway",
			"address_components": [{
				"long_name": "15",
				"short_name": "15",
				"types": ["street_number"]
			},
			{
				"types": ["route"],
				"short_name": "Kalkveien",
				"long_name": "Kalkveien"
			},
			{
				"types": ["postal_town"],
				"long_name": "Mjøndalen",
				"short_name": "Mjøndalen"
			},
			{
				"types": ["administrative_area_level_2",
				"political"],
				"long_name": "Nedre Eiker",
				"short_name": "Nedre Eiker"
			},
			{
				"short_name": "Buskerud",
				"long_name": "Buskerud",
				"types": ["administrative_area_level_1",
				"political"]
			},
			{
				"long_name": "Norway",
				"short_name": "NO",
				"types": ["country",
				"political"]
			},
			{
				"types": ["postal_code"],
				"long_name": "3050",
				"short_name": "3050"
			}],
			"geometry": {
				"viewport": {
					"southwest": {
						"lng": 10.0113732197085,
						"lat": 59.7343892197085
					},
					"northeast": {
						"lng": 10.0140711802915,
						"lat": 59.7370871802915
					}
				},
				"location_type": "RANGE_INTERPOLATED",
				"location": {
					"lat": 59.7357388,
					"lng": 10.0127129
				},
				"bounds": {
					"northeast": {
						"lat": 59.7357388,
						"lng": 10.0127315
					},
					"southwest": {
						"lng": 10.0127129,
						"lat": 59.7357376
					}
				}
			},
			"types": ["street_address"]
		}],
		"nodetype": "endepunkt",
		"navn": "anonym",
		"minadr": "Kalkveien 15, 3050, MJØNDALEN",
		"nodeid": "M27"
	},
	{
		"nodeid": "M28",
		"minadr": "Såsengata 34, 3050, MJØNDALEN",
		"navn": "anonym",
		"googlesvar": [{
			"types": ["street_address"],
			"geometry": {
				"location_type": "ROOFTOP",
				"viewport": {
					"northeast": {
						"lat": 59.7433911802915,
						"lng": 10.0109895802915
					},
					"southwest": {
						"lat": 59.7406932197085,
						"lng": 10.0082916197085
					}
				},
				"location": {
					"lat": 59.7420422,
					"lng": 10.0096406
				}
			},
			"place_id": "ChIJ1dbnOTQhQUYRCDe_R5pLsMI",
			"formatted_address": "Såsengata 34, 3050 Mjøndalen, Norway",
			"address_components": [{
				"short_name": "34",
				"long_name": "34",
				"types": ["street_number"]
			},
			{
				"long_name": "Såsengata",
				"short_name": "Såsengata",
				"types": ["route"]
			},
			{
				"long_name": "Mjøndalen",
				"short_name": "Mjøndalen",
				"types": ["postal_town"]
			},
			{
				"types": ["administrative_area_level_2",
				"political"],
				"short_name": "Nedre Eiker",
				"long_name": "Nedre Eiker"
			},
			{
				"long_name": "Buskerud",
				"short_name": "Buskerud",
				"types": ["administrative_area_level_1",
				"political"]
			},
			{
				"long_name": "Norway",
				"short_name": "NO",
				"types": ["country",
				"political"]
			},
			{
				"types": ["postal_code"],
				"short_name": "3050",
				"long_name": "3050"
			}]
		}],
		"nodetype": "endepunkt"
	},
	{
		"minadr": "STRANDVEIEN 27, 3050, MJØNDALEN",
		"nodeid": "M29",
		"nodetype": "endepunkt",
		"googlesvar": [{
			"types": ["street_address"],
			"geometry": {
				"location": {
					"lng": 10.0194135,
					"lat": 59.7510864
				},
				"location_type": "ROOFTOP",
				"viewport": {
					"southwest": {
						"lat": 59.7497374197085,
						"lng": 10.0180645197085
					},
					"northeast": {
						"lat": 59.7524353802915,
						"lng": 10.0207624802915
					}
				}
			},
			"place_id": "ChIJ8_hOgEchQUYRlbyrGAMTeAw",
			"formatted_address": "Strandveien 27, 3050 Mjøndalen, Norway",
			"address_components": [{
				"short_name": "27",
				"long_name": "27",
				"types": ["street_number"]
			},
			{
				"short_name": "Strandveien",
				"long_name": "Strandveien",
				"types": ["route"]
			},
			{
				"types": ["postal_town"],
				"short_name": "Mjøndalen",
				"long_name": "Mjøndalen"
			},
			{
				"types": ["administrative_area_level_2",
				"political"],
				"long_name": "Nedre Eiker",
				"short_name": "Nedre Eiker"
			},
			{
				"long_name": "Buskerud",
				"short_name": "Buskerud",
				"types": ["administrative_area_level_1",
				"political"]
			},
			{
				"short_name": "NO",
				"long_name": "Norway",
				"types": ["country",
				"political"]
			},
			{
				"types": ["postal_code"],
				"long_name": "3050",
				"short_name": "3050"
			}]
		}],
		"navn": "anonym"
	},
	{
		"navn": "anonym",
		"nodetype": "endepunkt",
		"googlesvar": [{
			"types": ["street_address"],
			"geometry": {
				"bounds": {
					"northeast": {
						"lng": 10.0127315,
						"lat": 59.7357388
					},
					"southwest": {
						"lng": 10.0127129,
						"lat": 59.7357376
					}
				},
				"location": {
					"lng": 10.0127129,
					"lat": 59.7357388
				},
				"location_type": "RANGE_INTERPOLATED",
				"viewport": {
					"southwest": {
						"lat": 59.7343892197085,
						"lng": 10.0113732197085
					},
					"northeast": {
						"lat": 59.7370871802915,
						"lng": 10.0140711802915
					}
				}
			},
			"place_id": "EiRLYWxrdmVpZW4gMTUsIDMwNTAgTWrDuG5kYWxlbiwgTm9yZ2U",
			"formatted_address": "Kalkveien 15, 3050 Mjøndalen, Norway",
			"address_components": [{
				"short_name": "15",
				"long_name": "15",
				"types": ["street_number"]
			},
			{
				"short_name": "Kalkveien",
				"long_name": "Kalkveien",
				"types": ["route"]
			},
			{
				"short_name": "Mjøndalen",
				"long_name": "Mjøndalen",
				"types": ["postal_town"]
			},
			{
				"types": ["administrative_area_level_2",
				"political"],
				"short_name": "Nedre Eiker",
				"long_name": "Nedre Eiker"
			},
			{
				"types": ["administrative_area_level_1",
				"political"],
				"short_name": "Buskerud",
				"long_name": "Buskerud"
			},
			{
				"long_name": "Norway",
				"short_name": "NO",
				"types": ["country",
				"political"]
			},
			{
				"types": ["postal_code"],
				"short_name": "3050",
				"long_name": "3050"
			}]
		}],
		"nodeid": "M30",
		"minadr": "Kalkveien 15, 3050, MJØNDALEN"
	},
	{
		"navn": "anonym",
		"googlesvar": [{
			"address_components": [{
				"types": ["street_number"],
				"short_name": "34",
				"long_name": "34"
			},
			{
				"types": ["route"],
				"long_name": "Såsengata",
				"short_name": "Såsengata"
			},
			{
				"types": ["postal_town"],
				"short_name": "Mjøndalen",
				"long_name": "Mjøndalen"
			},
			{
				"types": ["administrative_area_level_2",
				"political"],
				"short_name": "Nedre Eiker",
				"long_name": "Nedre Eiker"
			},
			{
				"types": ["administrative_area_level_1",
				"political"],
				"long_name": "Buskerud",
				"short_name": "Buskerud"
			},
			{
				"short_name": "NO",
				"long_name": "Norway",
				"types": ["country",
				"political"]
			},
			{
				"short_name": "3050",
				"long_name": "3050",
				"types": ["postal_code"]
			}],
			"formatted_address": "Såsengata 34, 3050 Mjøndalen, Norway",
			"place_id": "ChIJ1dbnOTQhQUYRCDe_R5pLsMI",
			"geometry": {
				"location_type": "ROOFTOP",
				"viewport": {
					"southwest": {
						"lat": 59.7406932197085,
						"lng": 10.0082916197085
					},
					"northeast": {
						"lng": 10.0109895802915,
						"lat": 59.7433911802915
					}
				},
				"location": {
					"lat": 59.7420422,
					"lng": 10.0096406
				}
			},
			"types": ["street_address"]
		}],
		"nodetype": "endepunkt",
		"nodeid": "M31",
		"minadr": "Såsengata 34, 3050, MJØNDALEN"
	},
	{
		"minadr": "STRANDVEIEN 18, 3050, MJØNDALEN",
		"nodeid": "M32",
		"googlesvar": [{
			"place_id": "ChIJ7-SZpTkhQUYRZgFPl6NgIHw",
			"formatted_address": "Strandveien 18, 3050 Mjøndalen, Norway",
			"address_components": [{
				"types": ["street_number"],
				"long_name": "18",
				"short_name": "18"
			},
			{
				"long_name": "Strandveien",
				"short_name": "Strandveien",
				"types": ["route"]
			},
			{
				"types": ["postal_town"],
				"short_name": "Mjøndalen",
				"long_name": "Mjøndalen"
			},
			{
				"short_name": "Nedre Eiker",
				"long_name": "Nedre Eiker",
				"types": ["administrative_area_level_2",
				"political"]
			},
			{
				"long_name": "Buskerud",
				"short_name": "Buskerud",
				"types": ["administrative_area_level_1",
				"political"]
			},
			{
				"long_name": "Norway",
				"short_name": "NO",
				"types": ["country",
				"political"]
			},
			{
				"long_name": "3050",
				"short_name": "3050",
				"types": ["postal_code"]
			}],
			"types": ["street_address"],
			"geometry": {
				"viewport": {
					"southwest": {
						"lng": 10.0119536197085,
						"lat": 59.7498290197085
					},
					"northeast": {
						"lng": 10.0146515802915,
						"lat": 59.7525269802915
					}
				},
				"location_type": "ROOFTOP",
				"location": {
					"lat": 59.751178,
					"lng": 10.0133026
				}
			}
		}],
		"nodetype": "endepunkt",
		"navn": "anonym"
	},
	{
		"nodeid": "M33",
		"minadr": "Strandveien 27, 3050, MJØNDALEN",
		"navn": "anonym",
		"googlesvar": [{
			"types": ["street_address"],
			"geometry": {
				"viewport": {
					"southwest": {
						"lng": 10.0180645197085,
						"lat": 59.7497374197085
					},
					"northeast": {
						"lng": 10.0207624802915,
						"lat": 59.7524353802915
					}
				},
				"location_type": "ROOFTOP",
				"location": {
					"lng": 10.0194135,
					"lat": 59.7510864
				}
			},
			"formatted_address": "Strandveien 27, 3050 Mjøndalen, Norway",
			"address_components": [{
				"types": ["street_number"],
				"long_name": "27",
				"short_name": "27"
			},
			{
				"long_name": "Strandveien",
				"short_name": "Strandveien",
				"types": ["route"]
			},
			{
				"types": ["postal_town"],
				"short_name": "Mjøndalen",
				"long_name": "Mjøndalen"
			},
			{
				"types": ["administrative_area_level_2",
				"political"],
				"short_name": "Nedre Eiker",
				"long_name": "Nedre Eiker"
			},
			{
				"short_name": "Buskerud",
				"long_name": "Buskerud",
				"types": ["administrative_area_level_1",
				"political"]
			},
			{
				"types": ["country",
				"political"],
				"short_name": "NO",
				"long_name": "Norway"
			},
			{
				"types": ["postal_code"],
				"long_name": "3050",
				"short_name": "3050"
			}],
			"place_id": "ChIJ8_hOgEchQUYRlbyrGAMTeAw"
		}],
		"nodetype": "endepunkt"
	},
	{
		"minadr": "Strandveien 22, 3050, MJØNDALEN",
		"nodeid": "M34",
		"googlesvar": [{
			"address_components": [{
				"long_name": "22",
				"short_name": "22",
				"types": ["street_number"]
			},
			{
				"long_name": "Strandveien",
				"short_name": "Strandveien",
				"types": ["route"]
			},
			{
				"long_name": "Mjøndalen",
				"short_name": "Mjøndalen",
				"types": ["postal_town"]
			},
			{
				"types": ["administrative_area_level_2",
				"political"],
				"short_name": "Nedre Eiker",
				"long_name": "Nedre Eiker"
			},
			{
				"types": ["administrative_area_level_1",
				"political"],
				"long_name": "Buskerud",
				"short_name": "Buskerud"
			},
			{
				"short_name": "NO",
				"long_name": "Norway",
				"types": ["country",
				"political"]
			},
			{
				"types": ["postal_code"],
				"long_name": "3050",
				"short_name": "3050"
			}],
			"formatted_address": "Strandveien 22, 3050 Mjøndalen, Norway",
			"place_id": "EiZTdHJhbmR2ZWllbiAyMiwgMzA1MCBNasO4bmRhbGVuLCBOb3JnZQ",
			"types": ["street_address"],
			"geometry": {
				"location": {
					"lat": 59.7512713,
					"lng": 10.015136
				},
				"bounds": {
					"northeast": {
						"lat": 59.7512713,
						"lng": 10.015136
					},
					"southwest": {
						"lat": 59.7512624,
						"lng": 10.0151297
					}
				},
				"location_type": "RANGE_INTERPOLATED",
				"viewport": {
					"southwest": {
						"lng": 10.0137838697085,
						"lat": 59.7499178697085
					},
					"northeast": {
						"lng": 10.0164818302915,
						"lat": 59.7526158302915
					}
				}
			}
		}],
		"nodetype": "endepunkt",
		"navn": "anonym"
	},
	{
		"nodeid": "M35",
		"minadr": "STRANDVEIEN 22, 3050, MJØNDALEN",
		"navn": "anonym",
		"googlesvar": [{
			"address_components": [{
				"types": ["street_number"],
				"long_name": "22",
				"short_name": "22"
			},
			{
				"short_name": "Strandveien",
				"long_name": "Strandveien",
				"types": ["route"]
			},
			{
				"types": ["postal_town"],
				"short_name": "Mjøndalen",
				"long_name": "Mjøndalen"
			},
			{
				"types": ["administrative_area_level_2",
				"political"],
				"long_name": "Nedre Eiker",
				"short_name": "Nedre Eiker"
			},
			{
				"short_name": "Buskerud",
				"long_name": "Buskerud",
				"types": ["administrative_area_level_1",
				"political"]
			},
			{
				"long_name": "Norway",
				"short_name": "NO",
				"types": ["country",
				"political"]
			},
			{
				"long_name": "3050",
				"short_name": "3050",
				"types": ["postal_code"]
			}],
			"formatted_address": "Strandveien 22, 3050 Mjøndalen, Norway",
			"place_id": "EiZTdHJhbmR2ZWllbiAyMiwgMzA1MCBNasO4bmRhbGVuLCBOb3JnZQ",
			"geometry": {
				"viewport": {
					"northeast": {
						"lng": 10.0164818302915,
						"lat": 59.7526158302915
					},
					"southwest": {
						"lng": 10.0137838697085,
						"lat": 59.7499178697085
					}
				},
				"location_type": "RANGE_INTERPOLATED",
				"bounds": {
					"southwest": {
						"lng": 10.0151297,
						"lat": 59.7512624
					},
					"northeast": {
						"lng": 10.015136,
						"lat": 59.7512713
					}
				},
				"location": {
					"lng": 10.015136,
					"lat": 59.7512713
				}
			},
			"types": ["street_address"]
		}],
		"nodetype": "endepunkt"
	},
	{
		"navn": "anonym",
		"googlesvar": [{
			"types": ["street_address"],
			"geometry": {
				"location": {
					"lng": 10.0194135,
					"lat": 59.7510864
				},
				"viewport": {
					"southwest": {
						"lat": 59.7497374197085,
						"lng": 10.0180645197085
					},
					"northeast": {
						"lng": 10.0207624802915,
						"lat": 59.7524353802915
					}
				},
				"location_type": "ROOFTOP"
			},
			"address_components": [{
				"types": ["street_number"],
				"long_name": "27",
				"short_name": "27"
			},
			{
				"long_name": "Strandveien",
				"short_name": "Strandveien",
				"types": ["route"]
			},
			{
				"long_name": "Mjøndalen",
				"short_name": "Mjøndalen",
				"types": ["postal_town"]
			},
			{
				"types": ["administrative_area_level_2",
				"political"],
				"long_name": "Nedre Eiker",
				"short_name": "Nedre Eiker"
			},
			{
				"short_name": "Buskerud",
				"long_name": "Buskerud",
				"types": ["administrative_area_level_1",
				"political"]
			},
			{
				"short_name": "NO",
				"long_name": "Norway",
				"types": ["country",
				"political"]
			},
			{
				"short_name": "3050",
				"long_name": "3050",
				"types": ["postal_code"]
			}],
			"formatted_address": "Strandveien 27, 3050 Mjøndalen, Norway",
			"place_id": "ChIJ8_hOgEchQUYRlbyrGAMTeAw"
		}],
		"nodetype": "endepunkt",
		"nodeid": "M36",
		"minadr": "STRANDVEIEN 27, 3050, MJØNDALEN"
	},
	{
		"navn": "anonym",
		"nodetype": "endepunkt",
		"googlesvar": [{
			"types": ["street_address"],
			"geometry": {
				"location": {
					"lat": 59.7420422,
					"lng": 10.0096406
				},
				"viewport": {
					"northeast": {
						"lng": 10.0109895802915,
						"lat": 59.7433911802915
					},
					"southwest": {
						"lat": 59.7406932197085,
						"lng": 10.0082916197085
					}
				},
				"location_type": "ROOFTOP"
			},
			"address_components": [{
				"long_name": "34",
				"short_name": "34",
				"types": ["street_number"]
			},
			{
				"long_name": "Såsengata",
				"short_name": "Såsengata",
				"types": ["route"]
			},
			{
				"long_name": "Mjøndalen",
				"short_name": "Mjøndalen",
				"types": ["postal_town"]
			},
			{
				"long_name": "Nedre Eiker",
				"short_name": "Nedre Eiker",
				"types": ["administrative_area_level_2",
				"political"]
			},
			{
				"long_name": "Buskerud",
				"short_name": "Buskerud",
				"types": ["administrative_area_level_1",
				"political"]
			},
			{
				"long_name": "Norway",
				"short_name": "NO",
				"types": ["country",
				"political"]
			},
			{
				"short_name": "3050",
				"long_name": "3050",
				"types": ["postal_code"]
			}],
			"formatted_address": "Såsengata 34, 3050 Mjøndalen, Norway",
			"place_id": "ChIJ1dbnOTQhQUYRCDe_R5pLsMI"
		}],
		"nodeid": "M37",
		"minadr": "Såsengata 34, 3050, MJØNDALEN"
	},
	{
		"minadr": "Strandveien 18, 3050, MJØNDALEN",
		"nodeid": "M38",
		"nodetype": "endepunkt",
		"googlesvar": [{
			"formatted_address": "Strandveien 18, 3050 Mjøndalen, Norway",
			"address_components": [{
				"types": ["street_number"],
				"long_name": "18",
				"short_name": "18"
			},
			{
				"short_name": "Strandveien",
				"long_name": "Strandveien",
				"types": ["route"]
			},
			{
				"types": ["postal_town"],
				"short_name": "Mjøndalen",
				"long_name": "Mjøndalen"
			},
			{
				"types": ["administrative_area_level_2",
				"political"],
				"short_name": "Nedre Eiker",
				"long_name": "Nedre Eiker"
			},
			{
				"types": ["administrative_area_level_1",
				"political"],
				"short_name": "Buskerud",
				"long_name": "Buskerud"
			},
			{
				"types": ["country",
				"political"],
				"long_name": "Norway",
				"short_name": "NO"
			},
			{
				"types": ["postal_code"],
				"long_name": "3050",
				"short_name": "3050"
			}],
			"place_id": "ChIJ7-SZpTkhQUYRZgFPl6NgIHw",
			"types": ["street_address"],
			"geometry": {
				"viewport": {
					"northeast": {
						"lng": 10.0146515802915,
						"lat": 59.7525269802915
					},
					"southwest": {
						"lng": 10.0119536197085,
						"lat": 59.7498290197085
					}
				},
				"location_type": "ROOFTOP",
				"location": {
					"lat": 59.751178,
					"lng": 10.0133026
				}
			}
		}],
		"navn": "anonym"
	},
	{
		"minadr": "STRANDVEIEN 22 b, 3050, MJØNDALEN",
		"nodeid": "M39",
		"nodetype": "endepunkt",
		"googlesvar": [{
			"place_id": "ChIJCxxOUTghQUYRQOrjJEHHwes",
			"address_components": [{
				"short_name": "22B",
				"long_name": "22B",
				"types": ["street_number"]
			},
			{
				"types": ["route"],
				"long_name": "Strandveien",
				"short_name": "Strandveien"
			},
			{
				"long_name": "Mjøndalen",
				"short_name": "Mjøndalen",
				"types": ["postal_town"]
			},
			{
				"short_name": "Nedre Eiker",
				"long_name": "Nedre Eiker",
				"types": ["administrative_area_level_2",
				"political"]
			},
			{
				"types": ["administrative_area_level_1",
				"political"],
				"long_name": "Buskerud",
				"short_name": "Buskerud"
			},
			{
				"long_name": "Norway",
				"short_name": "NO",
				"types": ["country",
				"political"]
			},
			{
				"short_name": "3050",
				"long_name": "3050",
				"types": ["postal_code"]
			}],
			"formatted_address": "Strandveien 22B, 3050 Mjøndalen, Norway",
			"geometry": {
				"location": {
					"lat": 59.7511428,
					"lng": 10.0152155
				},
				"viewport": {
					"northeast": {
						"lat": 59.7524917802915,
						"lng": 10.0165644802915
					},
					"southwest": {
						"lat": 59.7497938197085,
						"lng": 10.0138665197085
					}
				},
				"location_type": "ROOFTOP"
			},
			"types": ["street_address"]
		}],
		"navn": "anonym"
	},
	{
		"googlesvar": [{
			"geometry": {
				"location_type": "ROOFTOP",
				"viewport": {
					"southwest": {
						"lng": 10.0929512197085,
						"lat": 59.7489354197085
					},
					"northeast": {
						"lng": 10.0956491802915,
						"lat": 59.7516333802915
					}
				},
				"location": {
					"lat": 59.7502844,
					"lng": 10.0943002
				}
			},
			"types": ["street_address"],
			"place_id": "ChIJ0QiOxZQjQUYRrZ50j_H3F0Q",
			"formatted_address": "Drammensveien 217A, 3050 Mjøndalen, Norway",
			"address_components": [{
				"long_name": "217A",
				"short_name": "217A",
				"types": ["street_number"]
			},
			{
				"types": ["route"],
				"long_name": "Drammensveien",
				"short_name": "Drammensveien"
			},
			{
				"long_name": "Mjøndalen",
				"short_name": "Mjøndalen",
				"types": ["postal_town"]
			},
			{
				"types": ["administrative_area_level_2",
				"political"],
				"long_name": "Nedre Eiker",
				"short_name": "Nedre Eiker"
			},
			{
				"types": ["administrative_area_level_1",
				"political"],
				"short_name": "Buskerud",
				"long_name": "Buskerud"
			},
			{
				"long_name": "Norway",
				"short_name": "NO",
				"types": ["country",
				"political"]
			},
			{
				"types": ["postal_code"],
				"long_name": "3050",
				"short_name": "3050"
			}]
		}],
		"nodetype": "endepunkt",
		"navn": "anonym",
		"minadr": "Drammensveien 217A, 3050, MJØNDALEN",
		"nodeid": "M40"
	},
	{
		"nodetype": "endepunkt",
		"googlesvar": [{
			"place_id": "EiRLYWxrdmVpZW4gMTUsIDMwNTAgTWrDuG5kYWxlbiwgTm9yZ2U",
			"address_components": [{
				"short_name": "15",
				"long_name": "15",
				"types": ["street_number"]
			},
			{
				"types": ["route"],
				"long_name": "Kalkveien",
				"short_name": "Kalkveien"
			},
			{
				"short_name": "Mjøndalen",
				"long_name": "Mjøndalen",
				"types": ["postal_town"]
			},
			{
				"short_name": "Nedre Eiker",
				"long_name": "Nedre Eiker",
				"types": ["administrative_area_level_2",
				"political"]
			},
			{
				"long_name": "Buskerud",
				"short_name": "Buskerud",
				"types": ["administrative_area_level_1",
				"political"]
			},
			{
				"short_name": "NO",
				"long_name": "Norway",
				"types": ["country",
				"political"]
			},
			{
				"types": ["postal_code"],
				"short_name": "3050",
				"long_name": "3050"
			}],
			"formatted_address": "Kalkveien 15, 3050 Mjøndalen, Norway",
			"types": ["street_address"],
			"geometry": {
				"bounds": {
					"southwest": {
						"lat": 59.7357376,
						"lng": 10.0127129
					},
					"northeast": {
						"lng": 10.0127315,
						"lat": 59.7357388
					}
				},
				"location": {
					"lat": 59.7357388,
					"lng": 10.0127129
				},
				"viewport": {
					"northeast": {
						"lng": 10.0140711802915,
						"lat": 59.7370871802915
					},
					"southwest": {
						"lat": 59.7343892197085,
						"lng": 10.0113732197085
					}
				},
				"location_type": "RANGE_INTERPOLATED"
			}
		}],
		"navn": "anonym",
		"minadr": "Kalkveien 15, 3050, MJØNDALEN",
		"nodeid": "M41"
	},
	{
		"nodetype": "endepunkt",
		"googlesvar": [{
			"place_id": "ChIJeQtKFiwhQUYRbYBuBcrpJfM",
			"formatted_address": "Bråtaveien 30, 3050 Mjøndalen, Norway",
			"address_components": [{
				"long_name": "30",
				"short_name": "30",
				"types": ["street_number"]
			},
			{
				"long_name": "Bråtaveien",
				"short_name": "Bråtaveien",
				"types": ["route"]
			},
			{
				"types": ["postal_town"],
				"short_name": "Mjøndalen",
				"long_name": "Mjøndalen"
			},
			{
				"types": ["administrative_area_level_2",
				"political"],
				"long_name": "Nedre Eiker",
				"short_name": "Nedre Eiker"
			},
			{
				"types": ["administrative_area_level_1",
				"political"],
				"long_name": "Buskerud",
				"short_name": "Buskerud"
			},
			{
				"short_name": "NO",
				"long_name": "Norway",
				"types": ["country",
				"political"]
			},
			{
				"short_name": "3050",
				"long_name": "3050",
				"types": ["postal_code"]
			}],
			"geometry": {
				"location_type": "ROOFTOP",
				"viewport": {
					"northeast": {
						"lng": 9.9919114802915,
						"lat": 59.7451015802915
					},
					"southwest": {
						"lng": 9.9892135197085,
						"lat": 59.7424036197085
					}
				},
				"location": {
					"lat": 59.7437526,
					"lng": 9.9905625
				}
			},
			"types": ["street_address"]
		}],
		"navn": "anonym",
		"minadr": "Bråtaveien 30, 3050, MJØNDALEN",
		"nodeid": "M42"
	},
	{
		"minadr": "Skogfrueveien 52, 3050, MJØNDALEN",
		"nodeid": "M43",
		"nodetype": "endepunkt",
		"googlesvar": [{
			"formatted_address": "Skogfrueveien 52, 3050 Mjøndalen, Norway",
			"address_components": [{
				"types": ["street_number"],
				"short_name": "52",
				"long_name": "52"
			},
			{
				"types": ["route"],
				"short_name": "Skogfrueveien",
				"long_name": "Skogfrueveien"
			},
			{
				"long_name": "Mjøndalen",
				"short_name": "Mjøndalen",
				"types": ["postal_town"]
			},
			{
				"types": ["administrative_area_level_2",
				"political"],
				"short_name": "Nedre Eiker",
				"long_name": "Nedre Eiker"
			},
			{
				"types": ["administrative_area_level_1",
				"political"],
				"short_name": "Buskerud",
				"long_name": "Buskerud"
			},
			{
				"types": ["country",
				"political"],
				"long_name": "Norway",
				"short_name": "NO"
			},
			{
				"long_name": "3050",
				"short_name": "3050",
				"types": ["postal_code"]
			}],
			"place_id": "ChIJbcTlxLMmQUYRrJ8FSTsxaVI",
			"geometry": {
				"location_type": "ROOFTOP",
				"viewport": {
					"southwest": {
						"lat": 59.7299856197085,
						"lng": 10.0222029197085
					},
					"northeast": {
						"lng": 10.0249008802915,
						"lat": 59.7326835802915
					}
				},
				"location": {
					"lat": 59.7313346,
					"lng": 10.0235519
				}
			},
			"types": ["street_address"]
		}],
		"navn": "anonym"
	},
	{
		"googlesvar": [{
			"place_id": "EiZTdHJhbmR2ZWllbiAyMiwgMzA1MCBNasO4bmRhbGVuLCBOb3JnZQ",
			"address_components": [{
				"types": ["street_number"],
				"long_name": "22",
				"short_name": "22"
			},
			{
				"types": ["route"],
				"short_name": "Strandveien",
				"long_name": "Strandveien"
			},
			{
				"types": ["postal_town"],
				"short_name": "Mjøndalen",
				"long_name": "Mjøndalen"
			},
			{
				"short_name": "Nedre Eiker",
				"long_name": "Nedre Eiker",
				"types": ["administrative_area_level_2",
				"political"]
			},
			{
				"types": ["administrative_area_level_1",
				"political"],
				"short_name": "Buskerud",
				"long_name": "Buskerud"
			},
			{
				"types": ["country",
				"political"],
				"short_name": "NO",
				"long_name": "Norway"
			},
			{
				"long_name": "3050",
				"short_name": "3050",
				"types": ["postal_code"]
			}],
			"formatted_address": "Strandveien 22, 3050 Mjøndalen, Norway",
			"geometry": {
				"bounds": {
					"southwest": {
						"lat": 59.7512624,
						"lng": 10.0151297
					},
					"northeast": {
						"lng": 10.015136,
						"lat": 59.7512713
					}
				},
				"location": {
					"lat": 59.7512713,
					"lng": 10.015136
				},
				"viewport": {
					"northeast": {
						"lat": 59.7526158302915,
						"lng": 10.0164818302915
					},
					"southwest": {
						"lng": 10.0137838697085,
						"lat": 59.7499178697085
					}
				},
				"location_type": "RANGE_INTERPOLATED"
			},
			"types": ["street_address"]
		}],
		"nodetype": "endepunkt",
		"navn": "anonym",
		"minadr": "Strandveien 22, 3050, MJØNDALEN",
		"nodeid": "M44"
	},
	{
		"navn": "anonym",
		"nodetype": "endepunkt",
		"googlesvar": [{
			"formatted_address": "Strandveien 27, 3050 Mjøndalen, Norway",
			"address_components": [{
				"types": ["street_number"],
				"long_name": "27",
				"short_name": "27"
			},
			{
				"types": ["route"],
				"short_name": "Strandveien",
				"long_name": "Strandveien"
			},
			{
				"types": ["postal_town"],
				"long_name": "Mjøndalen",
				"short_name": "Mjøndalen"
			},
			{
				"long_name": "Nedre Eiker",
				"short_name": "Nedre Eiker",
				"types": ["administrative_area_level_2",
				"political"]
			},
			{
				"long_name": "Buskerud",
				"short_name": "Buskerud",
				"types": ["administrative_area_level_1",
				"political"]
			},
			{
				"long_name": "Norway",
				"short_name": "NO",
				"types": ["country",
				"political"]
			},
			{
				"short_name": "3050",
				"long_name": "3050",
				"types": ["postal_code"]
			}],
			"place_id": "ChIJ8_hOgEchQUYRlbyrGAMTeAw",
			"types": ["street_address"],
			"geometry": {
				"location": {
					"lat": 59.7510864,
					"lng": 10.0194135
				},
				"location_type": "ROOFTOP",
				"viewport": {
					"southwest": {
						"lng": 10.0180645197085,
						"lat": 59.7497374197085
					},
					"northeast": {
						"lat": 59.7524353802915,
						"lng": 10.0207624802915
					}
				}
			}
		}],
		"nodeid": "M45",
		"minadr": "Strandveien 27, 3050, MJØNDALEN"
	},
	{
		"nodeid": "M46",
		"minadr": "Haakon Tvetersvei 12, 682, OSLO",
		"navn": "anonym",
		"nodetype": "endepunkt",
		"googlesvar": [{
			"types": ["street_address"],
			"geometry": {
				"location_type": "ROOFTOP",
				"viewport": {
					"northeast": {
						"lat": 59.9023544802915,
						"lng": 10.8372564802915
					},
					"southwest": {
						"lat": 59.8996565197085,
						"lng": 10.8345585197085
					}
				},
				"location": {
					"lng": 10.8359075,
					"lat": 59.9010055
				}
			},
			"partial_match": true,
			"place_id": "ChIJO8ACWXRvQUYRdhUczTu-P1o",
			"formatted_address": "Haakon Tveters vei 12, 0682 Oslo, Norway",
			"address_components": [{
				"short_name": "12",
				"long_name": "12",
				"types": ["street_number"]
			},
			{
				"types": ["route"],
				"short_name": "Haakon Tveters vei",
				"long_name": "Haakon Tveters vei"
			},
			{
				"short_name": "Østensjø",
				"long_name": "Østensjø",
				"types": ["political",
				"sublocality",
				"sublocality_level_1"]
			},
			{
				"short_name": "Oslo",
				"long_name": "Oslo",
				"types": ["postal_town"]
			},
			{
				"short_name": "Oslo kommune",
				"long_name": "Oslo kommune",
				"types": ["administrative_area_level_2",
				"political"]
			},
			{
				"types": ["administrative_area_level_1",
				"political"],
				"short_name": "Oslo",
				"long_name": "Oslo"
			},
			{
				"types": ["country",
				"political"],
				"long_name": "Norway",
				"short_name": "NO"
			},
			{
				"types": ["postal_code"],
				"short_name": "0682",
				"long_name": "0682"
			}]
		}]
	},
	{
		"navn": "anonym",
		"nodetype": "endepunkt",
		"googlesvar": [{
			"partial_match": true,
			"place_id": "ChIJEfve41xuQUYRitBeG8HT_gw",
			"formatted_address": "Sars' gate 12, 0562 Oslo, Norway",
			"address_components": [{
				"long_name": "12",
				"short_name": "12",
				"types": ["street_number"]
			},
			{
				"types": ["route"],
				"long_name": "Sars' gate",
				"short_name": "Sars' gate"
			},
			{
				"types": ["political",
				"sublocality",
				"sublocality_level_1"],
				"short_name": "Grünerløkka",
				"long_name": "Grünerløkka"
			},
			{
				"types": ["postal_town"],
				"long_name": "Oslo",
				"short_name": "Oslo"
			},
			{
				"types": ["administrative_area_level_2",
				"political"],
				"short_name": "Oslo kommune",
				"long_name": "Oslo kommune"
			},
			{
				"types": ["administrative_area_level_1",
				"political"],
				"short_name": "Oslo",
				"long_name": "Oslo"
			},
			{
				"short_name": "NO",
				"long_name": "Norway",
				"types": ["country",
				"political"]
			},
			{
				"short_name": "0562",
				"long_name": "0562",
				"types": ["postal_code"]
			}],
			"types": ["street_address"],
			"geometry": {
				"location": {
					"lat": 59.9202724,
					"lng": 10.7690345
				},
				"viewport": {
					"northeast": {
						"lat": 59.9216213802915,
						"lng": 10.7703834802915
					},
					"southwest": {
						"lng": 10.7676855197085,
						"lat": 59.9189234197085
					}
				},
				"location_type": "ROOFTOP"
			}
		}],
		"nodeid": "M48",
		"minadr": "Sars gate 12, 562, OSLO"
	},
	{
		"navn": "anonym",
		"googlesvar": [{
			"types": ["street_address"],
			"geometry": {
				"viewport": {
					"southwest": {
						"lat": 59.9011607197085,
						"lng": 10.7942562197085
					},
					"northeast": {
						"lat": 59.9038586802915,
						"lng": 10.7969541802915
					}
				},
				"location_type": "ROOFTOP",
				"location": {
					"lng": 10.7956052,
					"lat": 59.9025097
				}
			},
			"place_id": "ChIJQyPW9QFvQUYR3IGqlapb15c",
			"partial_match": true,
			"formatted_address": "Eirik Raudes vei 32, 0196 Oslo, Norway",
			"address_components": [{
				"types": ["street_number"],
				"long_name": "32",
				"short_name": "32"
			},
			{
				"types": ["route"],
				"long_name": "Eirik Raudes vei",
				"short_name": "Eirik Raudes vei"
			},
			{
				"types": ["political",
				"sublocality",
				"sublocality_level_1"],
				"short_name": "Nordstrand",
				"long_name": "Nordstrand"
			},
			{
				"types": ["postal_town"],
				"short_name": "Oslo",
				"long_name": "Oslo"
			},
			{
				"long_name": "Oslo kommune",
				"short_name": "Oslo kommune",
				"types": ["administrative_area_level_2",
				"political"]
			},
			{
				"types": ["administrative_area_level_1",
				"political"],
				"short_name": "Oslo",
				"long_name": "Oslo"
			},
			{
				"types": ["country",
				"political"],
				"short_name": "NO",
				"long_name": "Norway"
			},
			{
				"short_name": "0196",
				"long_name": "0196",
				"types": ["postal_code"]
			}]
		}],
		"nodetype": "endepunkt",
		"nodeid": "M49",
		"minadr": "Eirik Raudes vei 32, 196, OSLO"
	},
	{
		"nodetype": "endepunkt",
		"googlesvar": [{
			"address_components": [{
				"short_name": "22",
				"long_name": "22",
				"types": ["street_number"]
			},
			{
				"long_name": "Eirik Raudes vei",
				"short_name": "Eirik Raudes vei",
				"types": ["route"]
			},
			{
				"types": ["political",
				"sublocality",
				"sublocality_level_1"],
				"long_name": "Nordstrand",
				"short_name": "Nordstrand"
			},
			{
				"long_name": "Oslo",
				"short_name": "Oslo",
				"types": ["postal_town"]
			},
			{
				"types": ["administrative_area_level_2",
				"political"],
				"long_name": "Oslo kommune",
				"short_name": "Oslo kommune"
			},
			{
				"types": ["administrative_area_level_1",
				"political"],
				"short_name": "Oslo",
				"long_name": "Oslo"
			},
			{
				"short_name": "NO",
				"long_name": "Norway",
				"types": ["country",
				"political"]
			},
			{
				"types": ["postal_code"],
				"long_name": "0196",
				"short_name": "0196"
			}],
			"formatted_address": "Eirik Raudes vei 22, 0196 Oslo, Norway",
			"place_id": "ChIJp61c7gFvQUYRdpu909NGUP8",
			"partial_match": true,
			"geometry": {
				"viewport": {
					"northeast": {
						"lat": 59.9045813802915,
						"lng": 10.7970782802915
					},
					"southwest": {
						"lat": 59.9018834197085,
						"lng": 10.7943803197085
					}
				},
				"location_type": "ROOFTOP",
				"location": {
					"lng": 10.7957293,
					"lat": 59.9032324
				}
			},
			"types": ["street_address"]
		}],
		"navn": "anonym",
		"minadr": "Eirik Raudesvei 22, 196, OSLO",
		"nodeid": "M50"
	},
	{
		"nodetype": "endepunkt",
		"googlesvar": [{
			"partial_match": true,
			"place_id": "ChIJpelvV25uQUYR5WLCfO-yTv4",
			"formatted_address": "Waldemars Hage 3, 0175 Oslo, Norway",
			"address_components": [{
				"long_name": "3",
				"short_name": "3",
				"types": ["street_number"]
			},
			{
				"short_name": "Waldemars Hage",
				"long_name": "Waldemars Hage",
				"types": ["route"]
			},
			{
				"short_name": "Grünerløkka",
				"long_name": "Grünerløkka",
				"types": ["political",
				"sublocality",
				"sublocality_level_1"]
			},
			{
				"types": ["postal_town"],
				"long_name": "Oslo",
				"short_name": "Oslo"
			},
			{
				"short_name": "Oslo kommune",
				"long_name": "Oslo kommune",
				"types": ["administrative_area_level_2",
				"political"]
			},
			{
				"long_name": "Oslo",
				"short_name": "Oslo",
				"types": ["administrative_area_level_1",
				"political"]
			},
			{
				"types": ["country",
				"political"],
				"long_name": "Norway",
				"short_name": "NO"
			},
			{
				"long_name": "0175",
				"short_name": "0175",
				"types": ["postal_code"]
			}],
			"geometry": {
				"location_type": "ROOFTOP",
				"viewport": {
					"southwest": {
						"lng": 10.7510163197085,
						"lat": 59.9257418197085
					},
					"northeast": {
						"lng": 10.7537142802915,
						"lat": 59.9284397802915
					}
				},
				"location": {
					"lat": 59.9270908,
					"lng": 10.7523653
				}
			},
			"types": ["street_address"]
		}],
		"navn": "anonym",
		"minadr": "Waldemars Hage 3, 175, OSLO",
		"nodeid": "M51"
	},
	{
		"navn": "anonym",
		"nodetype": "endepunkt",
		"googlesvar": [{
			"address_components": [{
				"types": ["street_number"],
				"long_name": "26C",
				"short_name": "26C"
			},
			{
				"types": ["route"],
				"short_name": "Venåsvegen",
				"long_name": "Venåsvegen"
			},
			{
				"types": ["political",
				"sublocality",
				"sublocality_level_1"],
				"short_name": "Alna",
				"long_name": "Alna"
			},
			{
				"long_name": "Oslo",
				"short_name": "Oslo",
				"types": ["postal_town"]
			},
			{
				"types": ["administrative_area_level_2",
				"political"],
				"long_name": "Oslo kommune",
				"short_name": "Oslo kommune"
			},
			{
				"short_name": "Oslo",
				"long_name": "Oslo",
				"types": ["administrative_area_level_1",
				"political"]
			},
			{
				"types": ["country",
				"political"],
				"long_name": "Norway",
				"short_name": "NO"
			},
			{
				"types": ["postal_code"],
				"short_name": "0672",
				"long_name": "0672"
			}],
			"formatted_address": "Venåsvegen 26C, 0672 Oslo, Norway",
			"partial_match": true,
			"place_id": "ChIJPwfTwY9vQUYRcn2cnQFMD8g",
			"geometry": {
				"location": {
					"lng": 10.858516,
					"lat": 59.9161946
				},
				"location_type": "ROOFTOP",
				"viewport": {
					"northeast": {
						"lat": 59.9175435802915,
						"lng": 10.8598649802915
					},
					"southwest": {
						"lng": 10.8571670197085,
						"lat": 59.9148456197085
					}
				}
			},
			"types": ["street_address"]
		}],
		"nodeid": "M52",
		"minadr": "Venåsveien 26C, 672, OSLO"
	},
	{
		"nodeid": "M53",
		"minadr": "Rødtvetveien 28, 955, OSLO",
		"navn": "anonym",
		"nodetype": "endepunkt",
		"googlesvar": [{
			"place_id": "ChIJ4VcxwB5wQUYRoI4PmU3mkfc",
			"partial_match": true,
			"formatted_address": "Rødtvetveien 28, 0955 Oslo, Norway",
			"address_components": [{
				"types": ["street_number"],
				"long_name": "28",
				"short_name": "28"
			},
			{
				"types": ["route"],
				"short_name": "Rødtvetveien",
				"long_name": "Rødtvetveien"
			},
			{
				"long_name": "Grorud",
				"short_name": "Grorud",
				"types": ["political",
				"sublocality",
				"sublocality_level_1"]
			},
			{
				"short_name": "Oslo",
				"long_name": "Oslo",
				"types": ["postal_town"]
			},
			{
				"types": ["administrative_area_level_2",
				"political"],
				"short_name": "Oslo kommune",
				"long_name": "Oslo kommune"
			},
			{
				"short_name": "Oslo",
				"long_name": "Oslo",
				"types": ["administrative_area_level_1",
				"political"]
			},
			{
				"types": ["country",
				"political"],
				"short_name": "NO",
				"long_name": "Norway"
			},
			{
				"types": ["postal_code"],
				"short_name": "0955",
				"long_name": "0955"
			}],
			"types": ["street_address"],
			"geometry": {
				"location": {
					"lat": 59.9540305,
					"lng": 10.8611385
				},
				"viewport": {
					"southwest": {
						"lat": 59.9526815197085,
						"lng": 10.8597895197085
					},
					"northeast": {
						"lng": 10.8624874802915,
						"lat": 59.9553794802915
					}
				},
				"location_type": "ROOFTOP"
			}
		}]
	},
	{
		"minadr": "Henrik Sørensens vei 23, 1065, OSLO",
		"nodeid": "M54",
		"googlesvar": [{
			"types": ["street_address"],
			"geometry": {
				"location": {
					"lat": 59.9390199,
					"lng": 10.9215157
				},
				"viewport": {
					"southwest": {
						"lng": 10.9201667197085,
						"lat": 59.9376709197085
					},
					"northeast": {
						"lat": 59.9403688802915,
						"lng": 10.9228646802915
					}
				},
				"location_type": "ROOFTOP"
			},
			"place_id": "ChIJNTaoHkplQUYRbGuhDOaieaM",
			"formatted_address": "Henrik Sørensens vei 23, 1065 Oslo, Norway",
			"address_components": [{
				"long_name": "23",
				"short_name": "23",
				"types": ["street_number"]
			},
			{
				"types": ["route"],
				"short_name": "Henrik Sørensens vei",
				"long_name": "Henrik Sørensens vei"
			},
			{
				"types": ["political",
				"sublocality",
				"sublocality_level_1"],
				"short_name": "Alna",
				"long_name": "Alna"
			},
			{
				"long_name": "Oslo",
				"short_name": "Oslo",
				"types": ["postal_town"]
			},
			{
				"types": ["administrative_area_level_2",
				"political"],
				"long_name": "Oslo kommune",
				"short_name": "Oslo kommune"
			},
			{
				"short_name": "Oslo",
				"long_name": "Oslo",
				"types": ["administrative_area_level_1",
				"political"]
			},
			{
				"long_name": "Norway",
				"short_name": "NO",
				"types": ["country",
				"political"]
			},
			{
				"short_name": "1065",
				"long_name": "1065",
				"types": ["postal_code"]
			}]
		}],
		"nodetype": "endepunkt",
		"navn": "anonym"
	},
	{
		"navn": "anonym",
		"nodetype": "endepunkt",
		"googlesvar": [{
			"address_components": [{
				"types": ["street_number"],
				"long_name": "38L",
				"short_name": "38L"
			},
			{
				"types": ["route"],
				"short_name": "Micheletveien",
				"long_name": "Micheletveien"
			},
			{
				"types": ["political",
				"sublocality",
				"sublocality_level_1"],
				"short_name": "Alna",
				"long_name": "Alna"
			},
			{
				"long_name": "Oslo",
				"short_name": "Oslo",
				"types": ["postal_town"]
			},
			{
				"types": ["administrative_area_level_2",
				"political"],
				"long_name": "Oslo kommune",
				"short_name": "Oslo kommune"
			},
			{
				"types": ["administrative_area_level_1",
				"political"],
				"short_name": "Oslo",
				"long_name": "Oslo"
			},
			{
				"long_name": "Norway",
				"short_name": "NO",
				"types": ["country",
				"political"]
			},
			{
				"long_name": "1053",
				"short_name": "1053",
				"types": ["postal_code"]
			}],
			"formatted_address": "Micheletveien 38L, 1053 Oslo, Norway",
			"place_id": "ChIJO1flKFZlQUYR-Cm1yrW_8xQ",
			"geometry": {
				"location_type": "ROOFTOP",
				"viewport": {
					"northeast": {
						"lat": 59.9406752802915,
						"lng": 10.8873305802915
					},
					"southwest": {
						"lat": 59.9379773197085,
						"lng": 10.8846326197085
					}
				},
				"location": {
					"lng": 10.8859816,
					"lat": 59.9393263
				}
			},
			"types": ["street_address"]
		}],
		"nodeid": "M55",
		"minadr": "Micheletveien 38L, 1053, OSLO"
	},
	{
		"nodeid": "M56",
		"minadr": "Tante Ulrikkes vei 29, 984, OSLO",
		"navn": "anonym",
		"googlesvar": [{
			"address_components": [{
				"long_name": "29",
				"short_name": "29",
				"types": ["street_number"]
			},
			{
				"types": ["route"],
				"short_name": "Tante Ulrikkes vei",
				"long_name": "Tante Ulrikkes vei"
			},
			{
				"short_name": "Oslo",
				"long_name": "Oslo",
				"types": ["postal_town"]
			},
			{
				"types": ["administrative_area_level_2",
				"political"],
				"long_name": "Oslo kommune",
				"short_name": "Oslo kommune"
			},
			{
				"long_name": "Oslo",
				"short_name": "Oslo",
				"types": ["administrative_area_level_1",
				"political"]
			},
			{
				"types": ["country",
				"political"],
				"long_name": "Norway",
				"short_name": "NO"
			},
			{
				"short_name": "0984",
				"long_name": "0984",
				"types": ["postal_code"]
			}],
			"formatted_address": "Tante Ulrikkes vei 29, 0984 Oslo, Norway",
			"partial_match": true,
			"place_id": "ChIJuycJEbB6QUYR1iGGhUObs7o",
			"types": ["street_address"],
			"geometry": {
				"location_type": "ROOFTOP",
				"viewport": {
					"northeast": {
						"lat": 59.9573284802915,
						"lng": 10.9148435802915
					},
					"southwest": {
						"lng": 10.9121456197085,
						"lat": 59.9546305197085
					}
				},
				"location": {
					"lat": 59.9559795,
					"lng": 10.9134946
				}
			}
		}],
		"nodetype": "endepunkt"
	},
	{
		"navn": "anonym",
		"nodetype": "endepunkt",
		"googlesvar": [{
			"types": ["street_address"],
			"geometry": {
				"viewport": {
					"northeast": {
						"lng": 10.8701560802915,
						"lat": 59.9512415802915
					},
					"southwest": {
						"lng": 10.8674581197085,
						"lat": 59.9485436197085
					}
				},
				"location_type": "ROOFTOP",
				"location": {
					"lng": 10.8688071,
					"lat": 59.9498926
				}
			},
			"address_components": [{
				"long_name": "6",
				"short_name": "6",
				"types": ["street_number"]
			},
			{
				"long_name": "Christoffer Hellums vei",
				"short_name": "Christoffer Hellums vei",
				"types": ["route"]
			},
			{
				"short_name": "Grorud",
				"long_name": "Grorud",
				"types": ["political",
				"sublocality",
				"sublocality_level_1"]
			},
			{
				"types": ["postal_town"],
				"long_name": "Oslo",
				"short_name": "Oslo"
			},
			{
				"long_name": "Oslo kommune",
				"short_name": "Oslo kommune",
				"types": ["administrative_area_level_2",
				"political"]
			},
			{
				"long_name": "Oslo",
				"short_name": "Oslo",
				"types": ["administrative_area_level_1",
				"political"]
			},
			{
				"types": ["country",
				"political"],
				"short_name": "NO",
				"long_name": "Norway"
			},
			{
				"types": ["postal_code"],
				"short_name": "0951",
				"long_name": "0951"
			}],
			"formatted_address": "Christoffer Hellums vei 6, 0951 Oslo, Norway",
			"place_id": "ChIJkz-waR1wQUYRSQA8HybQ0kI",
			"partial_match": true
		}],
		"nodeid": "M57",
		"minadr": "Christoffer Hellumsvei 6, 951, OSLO"
	},
	{
		"googlesvar": [{
			"geometry": {
				"location": {
					"lng": 10.7965768,
					"lat": 59.8962571
				},
				"viewport": {
					"northeast": {
						"lat": 59.8976060802915,
						"lng": 10.7979257802915
					},
					"southwest": {
						"lat": 59.8949081197085,
						"lng": 10.7952278197085
					}
				},
				"location_type": "ROOFTOP"
			},
			"types": ["street_address"],
			"address_components": [{
				"types": ["street_number"],
				"short_name": "22",
				"long_name": "22"
			},
			{
				"types": ["route"],
				"short_name": "Lyngveien",
				"long_name": "Lyngveien"
			},
			{
				"types": ["political",
				"sublocality",
				"sublocality_level_1"],
				"long_name": "Nordstrand",
				"short_name": "Nordstrand"
			},
			{
				"types": ["postal_town"],
				"short_name": "Oslo",
				"long_name": "Oslo"
			},
			{
				"types": ["administrative_area_level_2",
				"political"],
				"long_name": "Oslo kommune",
				"short_name": "Oslo kommune"
			},
			{
				"long_name": "Oslo",
				"short_name": "Oslo",
				"types": ["administrative_area_level_1",
				"political"]
			},
			{
				"types": ["country",
				"political"],
				"long_name": "Norway",
				"short_name": "NO"
			},
			{
				"long_name": "1182",
				"short_name": "1182",
				"types": ["postal_code"]
			}],
			"formatted_address": "Lyngveien 22, 1182 Oslo, Norway",
			"place_id": "ChIJyxqn0xxvQUYRBI6bSLQkcB8"
		}],
		"nodetype": "endepunkt",
		"navn": "anonym",
		"minadr": "Lyngveien 22, 1182, OSLO",
		"nodeid": "M58"
	},
	{
		"minadr": "Dr. Dedichens vei 128, 675, OSLO",
		"nodeid": "M59",
		"googlesvar": [{
			"place_id": "ChIJQ-8lYvNvQUYR3nVn8ulnG68",
			"partial_match": true,
			"formatted_address": "Dr. Dedichens vei 128, 0675 Oslo, Norway",
			"address_components": [{
				"short_name": "128",
				"long_name": "128",
				"types": ["street_number"]
			},
			{
				"types": ["route"],
				"long_name": "Doktor Dedichens vei",
				"short_name": "Dr. Dedichens vei"
			},
			{
				"types": ["political",
				"sublocality",
				"sublocality_level_1"],
				"short_name": "Alna",
				"long_name": "Alna"
			},
			{
				"types": ["postal_town"],
				"long_name": "Oslo",
				"short_name": "Oslo"
			},
			{
				"short_name": "Oslo kommune",
				"long_name": "Oslo kommune",
				"types": ["administrative_area_level_2",
				"political"]
			},
			{
				"short_name": "Oslo",
				"long_name": "Oslo",
				"types": ["administrative_area_level_1",
				"political"]
			},
			{
				"types": ["country",
				"political"],
				"long_name": "Norway",
				"short_name": "NO"
			},
			{
				"long_name": "0675",
				"short_name": "0675",
				"types": ["postal_code"]
			}],
			"geometry": {
				"location": {
					"lat": 59.9272466,
					"lng": 10.8706088
				},
				"viewport": {
					"northeast": {
						"lng": 10.8719577802915,
						"lat": 59.9285955802915
					},
					"southwest": {
						"lat": 59.9258976197085,
						"lng": 10.8692598197085
					}
				},
				"location_type": "ROOFTOP"
			},
			"types": ["street_address"]
		}],
		"nodetype": "endepunkt",
		"navn": "anonym"
	},
	{
		"navn": "anonym",
		"googlesvar": [{
			"types": ["street_address"],
			"geometry": {
				"location": {
					"lng": 10.8597899,
					"lat": 59.9211977
				},
				"viewport": {
					"southwest": {
						"lat": 59.9198487197085,
						"lng": 10.8584409197085
					},
					"northeast": {
						"lat": 59.9225466802915,
						"lng": 10.8611388802915
					}
				},
				"location_type": "ROOFTOP"
			},
			"address_components": [{
				"long_name": "88",
				"short_name": "88",
				"types": ["street_number"]
			},
			{
				"long_name": "Haugerudveien",
				"short_name": "Haugerudveien",
				"types": ["route"]
			},
			{
				"short_name": "Alna",
				"long_name": "Alna",
				"types": ["political",
				"sublocality",
				"sublocality_level_1"]
			},
			{
				"short_name": "Oslo",
				"long_name": "Oslo",
				"types": ["postal_town"]
			},
			{
				"long_name": "Oslo kommune",
				"short_name": "Oslo kommune",
				"types": ["administrative_area_level_2",
				"political"]
			},
			{
				"long_name": "Oslo",
				"short_name": "Oslo",
				"types": ["administrative_area_level_1",
				"political"]
			},
			{
				"short_name": "NO",
				"long_name": "Norway",
				"types": ["country",
				"political"]
			},
			{
				"types": ["postal_code"],
				"long_name": "0674",
				"short_name": "0674"
			}],
			"formatted_address": "Haugerudveien 88, 0674 Oslo, Norway",
			"place_id": "ChIJA_wF8I1vQUYRdoFwTu_Rj9M",
			"partial_match": true
		}],
		"nodetype": "endepunkt",
		"nodeid": "M60",
		"minadr": "Haugerudveien 88, 674, OSLO"
	},
	{
		"minadr": "Veitvetstubben 10B, 596, OSLO",
		"nodeid": "M61",
		"nodetype": "endepunkt",
		"googlesvar": [{
			"types": ["street_address"],
			"geometry": {
				"viewport": {
					"southwest": {
						"lat": 59.9421263197085,
						"lng": 10.8423796197085
					},
					"northeast": {
						"lng": 10.8450775802915,
						"lat": 59.9448242802915
					}
				},
				"location_type": "ROOFTOP",
				"location": {
					"lng": 10.8437286,
					"lat": 59.9434753
				}
			},
			"formatted_address": "Veitvetstubben 10B, 0596 Oslo, Norway",
			"address_components": [{
				"types": ["street_number"],
				"short_name": "10B",
				"long_name": "10B"
			},
			{
				"types": ["route"],
				"short_name": "Veitvetstubben",
				"long_name": "Veitvetstubben"
			},
			{
				"types": ["political",
				"sublocality",
				"sublocality_level_1"],
				"short_name": "Bjerke",
				"long_name": "Bjerke"
			},
			{
				"types": ["postal_town"],
				"long_name": "Oslo",
				"short_name": "Oslo"
			},
			{
				"types": ["administrative_area_level_2",
				"political"],
				"long_name": "Oslo kommune",
				"short_name": "Oslo kommune"
			},
			{
				"types": ["administrative_area_level_1",
				"political"],
				"short_name": "Oslo",
				"long_name": "Oslo"
			},
			{
				"long_name": "Norway",
				"short_name": "NO",
				"types": ["country",
				"political"]
			},
			{
				"long_name": "0596",
				"short_name": "0596",
				"types": ["postal_code"]
			}],
			"place_id": "ChIJ3Y4nRtxvQUYRkWcAi-YBexU",
			"partial_match": true
		}],
		"navn": "anonym"
	},
	{
		"minadr": "Dr. Dedichens vei 76, 675, OSLO",
		"nodeid": "M62",
		"googlesvar": [{
			"types": ["street_address"],
			"geometry": {
				"location": {
					"lng": 10.8683839,
					"lat": 59.9256755
				},
				"location_type": "ROOFTOP",
				"viewport": {
					"southwest": {
						"lat": 59.9243265197085,
						"lng": 10.8670349197085
					},
					"northeast": {
						"lat": 59.9270244802915,
						"lng": 10.8697328802915
					}
				}
			},
			"address_components": [{
				"types": ["street_number"],
				"short_name": "76",
				"long_name": "76"
			},
			{
				"long_name": "Doktor Dedichens vei",
				"short_name": "Dr. Dedichens vei",
				"types": ["route"]
			},
			{
				"long_name": "Alna",
				"short_name": "Alna",
				"types": ["political",
				"sublocality",
				"sublocality_level_1"]
			},
			{
				"short_name": "Oslo",
				"long_name": "Oslo",
				"types": ["postal_town"]
			},
			{
				"types": ["administrative_area_level_2",
				"political"],
				"long_name": "Oslo kommune",
				"short_name": "Oslo kommune"
			},
			{
				"types": ["administrative_area_level_1",
				"political"],
				"long_name": "Oslo",
				"short_name": "Oslo"
			},
			{
				"types": ["country",
				"political"],
				"long_name": "Norway",
				"short_name": "NO"
			},
			{
				"types": ["postal_code"],
				"long_name": "0675",
				"short_name": "0675"
			}],
			"formatted_address": "Dr. Dedichens vei 76, 0675 Oslo, Norway",
			"partial_match": true,
			"place_id": "ChIJWeiYTPNvQUYROQNxsVM-Crw"
		}],
		"nodetype": "endepunkt",
		"navn": "anonym"
	},
	{
		"minadr": "Christoffer Hellumsvei 6, 951, OSLO",
		"nodeid": "M63",
		"googlesvar": [{
			"formatted_address": "Christoffer Hellums vei 6, 0951 Oslo, Norway",
			"address_components": [{
				"types": ["street_number"],
				"short_name": "6",
				"long_name": "6"
			},
			{
				"short_name": "Christoffer Hellums vei",
				"long_name": "Christoffer Hellums vei",
				"types": ["route"]
			},
			{
				"short_name": "Grorud",
				"long_name": "Grorud",
				"types": ["political",
				"sublocality",
				"sublocality_level_1"]
			},
			{
				"long_name": "Oslo",
				"short_name": "Oslo",
				"types": ["postal_town"]
			},
			{
				"short_name": "Oslo kommune",
				"long_name": "Oslo kommune",
				"types": ["administrative_area_level_2",
				"political"]
			},
			{
				"long_name": "Oslo",
				"short_name": "Oslo",
				"types": ["administrative_area_level_1",
				"political"]
			},
			{
				"types": ["country",
				"political"],
				"long_name": "Norway",
				"short_name": "NO"
			},
			{
				"short_name": "0951",
				"long_name": "0951",
				"types": ["postal_code"]
			}],
			"place_id": "ChIJkz-waR1wQUYRSQA8HybQ0kI",
			"partial_match": true,
			"types": ["street_address"],
			"geometry": {
				"viewport": {
					"northeast": {
						"lng": 10.8701560802915,
						"lat": 59.9512415802915
					},
					"southwest": {
						"lng": 10.8674581197085,
						"lat": 59.9485436197085
					}
				},
				"location_type": "ROOFTOP",
				"location": {
					"lng": 10.8688071,
					"lat": 59.9498926
				}
			}
		}],
		"nodetype": "endepunkt",
		"navn": "anonym"
	},
	{
		"nodeid": "M64",
		"minadr": "Kurlandstien 20, 1052, OSLO",
		"navn": "anonym",
		"nodetype": "endepunkt",
		"googlesvar": [{
			"formatted_address": "Kurlandstien 20, 1052 Oslo, Norway",
			"address_components": [{
				"long_name": "20",
				"short_name": "20",
				"types": ["street_number"]
			},
			{
				"short_name": "Kurlandstien",
				"long_name": "Kurlandstien",
				"types": ["route"]
			},
			{
				"short_name": "Alna",
				"long_name": "Alna",
				"types": ["political",
				"sublocality",
				"sublocality_level_1"]
			},
			{
				"types": ["postal_town"],
				"long_name": "Oslo",
				"short_name": "Oslo"
			},
			{
				"types": ["administrative_area_level_2",
				"political"],
				"long_name": "Oslo kommune",
				"short_name": "Oslo kommune"
			},
			{
				"short_name": "Oslo",
				"long_name": "Oslo",
				"types": ["administrative_area_level_1",
				"political"]
			},
			{
				"types": ["country",
				"political"],
				"long_name": "Norway",
				"short_name": "NO"
			},
			{
				"types": ["postal_code"],
				"long_name": "1052",
				"short_name": "1052"
			}],
			"place_id": "ChIJccE1MVRlQUYRn5uguuNQ_Ug",
			"geometry": {
				"location": {
					"lng": 10.8923624,
					"lat": 59.9422047
				},
				"location_type": "ROOFTOP",
				"viewport": {
					"southwest": {
						"lat": 59.9408557197085,
						"lng": 10.8910134197085
					},
					"northeast": {
						"lat": 59.9435536802915,
						"lng": 10.8937113802915
					}
				}
			},
			"types": ["street_address"]
		}]
	},
	{
		"nodeid": "M65",
		"minadr": "Martin Linges vei 77, 692, OSLO",
		"navn": "anonym",
		"nodetype": "endepunkt",
		"googlesvar": [{
			"place_id": "EiZNYXJ0aW4gTGluZ2VzIHZlaSA3NywgMDY5MiBPc2xvLCBOb3JnZQ",
			"partial_match": true,
			"formatted_address": "Martin Linges vei 77, 0692 Oslo, Norway",
			"address_components": [{
				"types": ["street_number"],
				"long_name": "77",
				"short_name": "77"
			},
			{
				"long_name": "Martin Linges vei",
				"short_name": "Martin Linges vei",
				"types": ["route"]
			},
			{
				"types": ["political",
				"sublocality",
				"sublocality_level_1"],
				"short_name": "Østensjø",
				"long_name": "Østensjø"
			},
			{
				"long_name": "Oslo",
				"short_name": "Oslo",
				"types": ["postal_town"]
			},
			{
				"types": ["administrative_area_level_2",
				"political"],
				"short_name": "Oslo kommune",
				"long_name": "Oslo kommune"
			},
			{
				"short_name": "Oslo",
				"long_name": "Oslo",
				"types": ["administrative_area_level_1",
				"political"]
			},
			{
				"types": ["country",
				"political"],
				"short_name": "NO",
				"long_name": "Norway"
			},
			{
				"types": ["postal_code"],
				"short_name": "0692",
				"long_name": "0692"
			}],
			"types": ["street_address"],
			"geometry": {
				"bounds": {
					"southwest": {
						"lng": 10.8410544,
						"lat": 59.8764439
					},
					"northeast": {
						"lng": 10.841059,
						"lat": 59.876453
					}
				},
				"location": {
					"lng": 10.841059,
					"lat": 59.8764439
				},
				"location_type": "RANGE_INTERPOLATED",
				"viewport": {
					"northeast": {
						"lng": 10.8424056802915,
						"lat": 59.8777974302915
					},
					"southwest": {
						"lat": 59.8750994697085,
						"lng": 10.8397077197085
					}
				}
			}
		}]
	},
	{
		"nodetype": "endepunkt",
		"googlesvar": [{
			"types": ["street_address"],
			"geometry": {
				"location_type": "ROOFTOP",
				"viewport": {
					"northeast": {
						"lat": 59.8804640802915,
						"lng": 10.8467423802915
					},
					"southwest": {
						"lng": 10.8440444197085,
						"lat": 59.8777661197085
					}
				},
				"location": {
					"lat": 59.8791151,
					"lng": 10.8453934
				}
			},
			"place_id": "ChIJkSaIoV1vQUYRbQcwCDwQdZA",
			"partial_match": true,
			"formatted_address": "Bølerlia 71, 0691 Oslo, Norway",
			"address_components": [{
				"short_name": "71",
				"long_name": "71",
				"types": ["street_number"]
			},
			{
				"short_name": "Bølerlia",
				"long_name": "Bølerlia",
				"types": ["route"]
			},
			{
				"short_name": "Østensjø",
				"long_name": "Østensjø",
				"types": ["political",
				"sublocality",
				"sublocality_level_1"]
			},
			{
				"short_name": "Oslo",
				"long_name": "Oslo",
				"types": ["postal_town"]
			},
			{
				"types": ["administrative_area_level_2",
				"political"],
				"long_name": "Oslo kommune",
				"short_name": "Oslo kommune"
			},
			{
				"types": ["administrative_area_level_1",
				"political"],
				"short_name": "Oslo",
				"long_name": "Oslo"
			},
			{
				"short_name": "NO",
				"long_name": "Norway",
				"types": ["country",
				"political"]
			},
			{
				"long_name": "0691",
				"short_name": "0691",
				"types": ["postal_code"]
			}]
		}],
		"navn": "anonym",
		"minadr": "BØLERLIA 71, 691, OSLO",
		"nodeid": "M66"
	},
	{
		"navn": "anonym",
		"googlesvar": [{
			"types": ["street_address"],
			"geometry": {
				"location_type": "ROOFTOP",
				"viewport": {
					"northeast": {
						"lng": 10.8841713802915,
						"lat": 59.9324936802915
					},
					"southwest": {
						"lat": 59.9297957197085,
						"lng": 10.8814734197085
					}
				},
				"location": {
					"lat": 59.9311447,
					"lng": 10.8828224
				}
			},
			"address_components": [{
				"long_name": "68D",
				"short_name": "68D",
				"types": ["street_number"]
			},
			{
				"types": ["route"],
				"short_name": "Lindebergåsen",
				"long_name": "Lindebergåsen"
			},
			{
				"long_name": "Alna",
				"short_name": "Alna",
				"types": ["political",
				"sublocality",
				"sublocality_level_1"]
			},
			{
				"long_name": "Oslo",
				"short_name": "Oslo",
				"types": ["postal_town"]
			},
			{
				"types": ["administrative_area_level_2",
				"political"],
				"short_name": "Oslo kommune",
				"long_name": "Oslo kommune"
			},
			{
				"types": ["administrative_area_level_1",
				"political"],
				"long_name": "Oslo",
				"short_name": "Oslo"
			},
			{
				"long_name": "Norway",
				"short_name": "NO",
				"types": ["country",
				"political"]
			},
			{
				"long_name": "1068",
				"short_name": "1068",
				"types": ["postal_code"]
			}],
			"formatted_address": "Lindebergåsen 68D, 1068 Oslo, Norway",
			"place_id": "ChIJ_W1TpFhlQUYRXgBoq_MnnKk"
		}],
		"nodetype": "endepunkt",
		"nodeid": "M67",
		"minadr": "Lindebergåsen 68D, 1068, OSLO"
	},
	{
		"googlesvar": [{
			"place_id": "ChIJozokc-WFQUYRvlhgtHsx-ZI",
			"formatted_address": "Bønsmovegen 13B, 2070 Råholt, Norway",
			"address_components": [{
				"types": ["street_number"],
				"long_name": "13B",
				"short_name": "13B"
			},
			{
				"types": ["route"],
				"long_name": "Bønsmovegen",
				"short_name": "Bønsmovegen"
			},
			{
				"types": ["postal_town"],
				"long_name": "Råholt",
				"short_name": "Råholt"
			},
			{
				"types": ["administrative_area_level_2",
				"political"],
				"long_name": "Eidsvoll",
				"short_name": "Eidsvoll"
			},
			{
				"types": ["administrative_area_level_1",
				"political"],
				"short_name": "Akershus",
				"long_name": "Akershus"
			},
			{
				"types": ["country",
				"political"],
				"short_name": "NO",
				"long_name": "Norway"
			},
			{
				"long_name": "2070",
				"short_name": "2070",
				"types": ["postal_code"]
			}],
			"geometry": {
				"location_type": "ROOFTOP",
				"viewport": {
					"southwest": {
						"lat": 60.2825480197085,
						"lng": 11.1754637197085
					},
					"northeast": {
						"lng": 11.1781616802915,
						"lat": 60.2852459802915
					}
				},
				"location": {
					"lat": 60.283897,
					"lng": 11.1768127
				}
			},
			"types": ["street_address"]
		}],
		"nodetype": "endepunkt",
		"navn": "anonym",
		"minadr": "Bønsmovegen 13b, 2070, RÅHOLT",
		"nodeid": "M68"
	},
	{
		"googlesvar": [{
			"formatted_address": "Håreveien, 3330 Skotselv, Norway",
			"address_components": [{
				"short_name": "Håreveien",
				"long_name": "Håreveien",
				"types": ["route"]
			},
			{
				"types": ["postal_town"],
				"short_name": "Skotselv",
				"long_name": "Skotselv"
			},
			{
				"short_name": "Øvre Eiker",
				"long_name": "Øvre Eiker",
				"types": ["administrative_area_level_2",
				"political"]
			},
			{
				"types": ["administrative_area_level_1",
				"political"],
				"long_name": "Buskerud",
				"short_name": "Buskerud"
			},
			{
				"types": ["country",
				"political"],
				"short_name": "NO",
				"long_name": "Norway"
			},
			{
				"types": ["postal_code"],
				"long_name": "3330",
				"short_name": "3330"
			}],
			"partial_match": true,
			"place_id": "ChIJKWUyRjznQEYRRnrJpLZsg3M",
			"types": ["route"],
			"geometry": {
				"location": {
					"lat": 59.8780078,
					"lng": 9.7763133
				},
				"bounds": {
					"southwest": {
						"lat": 59.8683978,
						"lng": 9.7668904
					},
					"northeast": {
						"lat": 59.8895016,
						"lng": 9.7921013
					}
				},
				"viewport": {
					"northeast": {
						"lng": 9.7921013,
						"lat": 59.8895016
					},
					"southwest": {
						"lng": 9.7668904,
						"lat": 59.8683978
					}
				},
				"location_type": "GEOMETRIC_CENTER"
			}
		}],
		"nodetype": "endepunkt",
		"navn": "anonym",
		"minadr": "Håreveien 239, 3330, SKOTSELV",
		"nodeid": "M70"
	},
	{
		"nodetype": "endepunkt",
		"googlesvar": [{
			"partial_match": true,
			"place_id": "ChIJKWUyRjznQEYRRnrJpLZsg3M",
			"address_components": [{
				"types": ["route"],
				"short_name": "Håreveien",
				"long_name": "Håreveien"
			},
			{
				"short_name": "Skotselv",
				"long_name": "Skotselv",
				"types": ["postal_town"]
			},
			{
				"types": ["administrative_area_level_2",
				"political"],
				"long_name": "Øvre Eiker",
				"short_name": "Øvre Eiker"
			},
			{
				"types": ["administrative_area_level_1",
				"political"],
				"short_name": "Buskerud",
				"long_name": "Buskerud"
			},
			{
				"types": ["country",
				"political"],
				"short_name": "NO",
				"long_name": "Norway"
			},
			{
				"long_name": "3330",
				"short_name": "3330",
				"types": ["postal_code"]
			}],
			"formatted_address": "Håreveien, 3330 Skotselv, Norway",
			"geometry": {
				"location": {
					"lng": 9.7763133,
					"lat": 59.8780078
				},
				"bounds": {
					"southwest": {
						"lng": 9.7668904,
						"lat": 59.8683978
					},
					"northeast": {
						"lat": 59.8895016,
						"lng": 9.7921013
					}
				},
				"viewport": {
					"northeast": {
						"lat": 59.8895016,
						"lng": 9.7921013
					},
					"southwest": {
						"lat": 59.8683978,
						"lng": 9.7668904
					}
				},
				"location_type": "GEOMETRIC_CENTER"
			},
			"types": ["route"]
		}],
		"navn": "anonym",
		"minadr": "Håreveien 239, 3330, SKOTSELV",
		"nodeid": "M71"
	},